"TIENDA_ID","PLAZA_CVE","NIVELSOCIOECONOMICO_DES","ENTORNO_DES","MTS2VENTAS_NUM","PUERTASREFRIG_NUM","CAJONESESTACIONAMIENTO_NUM","LATITUD_NUM","LONGITUD_NUM","SEGMENTO_MAESTRO_DESC","LID_UBICACION_TIENDA","DATASET","direccion","codigo_postal","estado","X","min_mes","max_mes","min","max","prom","desvstd","skewness","kurtosis","q1","q10","q25","q50","q75","q90","q99","Meta_venta","ratio","exito"
126,1,"BC","Hogar",127.42,13,7,25.69107,-100.21261,"Hogar Reunión","UT_DENSIDAD","TRAIN","Circuito De Las Quintas Sur, Residencial Las Quintas, Guadalupe, Nuevo León, 67118, México",67118,"Nuevo León",125,202301,202412,78331.04,1180529.27,897943.461428571,314048.541899566,-1.75728104408545,2.64374795382494,83900.116,555932.89,775114.25,984454.29,1096866.62,1150093.19,1179621.792,490000,1.83253767638484,1
681,1,"C","Hogar",128.13,13,0,25.73571,-100.18086,"Hogar Reunión","UT_DENSIDAD","TRAIN","Calle Paseo De La Gloria, Rincón de la Gloria, Apodaca, Nuevo León, 66634, México",66634,"Nuevo León",680,202301,202412,352343.14,1142876.26,875823.11,177210.453353117,-1.3254179366676,2.6347821337901,404617.91,682280.75,805632.39,904828.05,993308.25,1028034.64,1127487.744,490000,1.78739410204082,1
117,1,"C","Base",87.62,11,11,25.71883,-100.19133,"Hogar Reunión","UT_DENSIDAD","TRAIN","Loma Alta Sur, Lomas de San Miguel, Guadalupe, Nuevo León, 67112, México",67112,"Nuevo León",116,202301,202412,39231.98,679071.26,454438.265714286,168750.415831182,-1.05836406474798,0.938720952404483,53023.12,240896.39,401300.5,481266.44,549538.79,636046.93,675997.454,480000,0.946746386904762,0
682,1,"C","Hogar",90.7,13,0,25.66952,-100.20744,"Hogar Reunión","UT_DENSIDAD","TRAIN","Arturo B. de la Garza, La Comedia, Guadalupe, Nuevo León, 67180, México",67180,"Nuevo León",681,202301,202412,492032.74,1184104.71,945847.573809524,155446.680724882,-1.10113249423788,2.48299942772868,542588.536,774231.42,886548.71,947389.7,1052899.69,1091986.25,1180238.986,490000,1.93030117103984,1
275,1,"C","Hogar",95.3,13,6,25.73766,-100.16116,"Hogar Reunión","UT_DENSIDAD","TRAIN","Oxxo, Gaspar Castaño, Rincón de Huinalá, Apodaca, Nuevo León, 66644, México",66644,"Nuevo León",274,202301,202412,121380.24,1519884.56,859411.378095238,431061.770148608,-0.073419627718659,-1.23431005447366,155924.918,323220.52,439180.36,854536.6,1156174.76,1418670.59,1514553.766,490000,1.75390077162293,1
684,1,"C","Base",116.07,13,0,25.70486,-100.15613,"Oficinistas","UT_GAS_URBANA","TRAIN","Oxxo, Avenida Adolfo Ruiz Cortínes, Apodaca, Nuevo León, 66647, México",66647,"Nuevo León",683,202301,202412,182077.04,537798.68,409774.891428571,86389.1107389851,-1.140553306985,1.71618938654122,191643.934,337475.28,364702.19,421974.11,452462.97,502092.16,530943.988,480000,0.853697690476191,0
694,1,"C","Receso",78.48,13,0,25.67955,-100.24328,"Oficinistas","UT_TRAFICO_PEATONAL","TRAIN","Oxxo, Avenida Benito Juárez, Guadalupe, Nuevo León, 67150, México",67150,"Nuevo León",693,202301,202412,551264.93,1520226.11,1229238.29285714,192332.731631047,-2.08869461260865,7.50805338672413,658579.322,1116033.83,1171690.36,1231169.28,1350013.31,1417642.47,1500380.732,516000,2.38224475359911,1
272,1,"C","Hogar",100.58,12,7,25.70058,-100.2018,"Hogar Reunión","UT_DENSIDAD","TRAIN","Oxxo, Misión de Nuestra Señora, Guadalupe, Nuevo León, 67118, México",67118,"Nuevo León",271,202301,202412,585550.61,1917060.92,1518323.97714286,271818.687913688,-1.99983769983445,6.50095203116454,718683.918,1299028.43,1452685.79,1571214.27,1647104.96,1720858.81,1905563.9,490000,3.09862036151603,1
702,1,"C","Hogar",73.24,13,0,25.67344,-100.26084,"Hogar Reunión","UT_DENSIDAD","TRAIN","230, Calle Mariano Matamoros, Centro, Guadalupe, Nuevo León, 67174, México",67174,"Nuevo León",701,202301,202412,462359.75,1175130.66,921464.206190476,167139.369344963,-1.04195936394317,1.51808098026772,503523.566,731958.24,835138.28,963629.7,1014869.27,1081636.37,1167280.898,490000,1.88053919630709,1
704,1,"C","Base",107.23,13,0,25.68419,-100.22138,"Hogar Reunión","UT_TRAFICO_VEHICULAR","TRAIN","16 de Noviembre, Riberas del Río, Guadalupe, Nuevo León, 67150, México",67150,"Nuevo León",703,202301,202412,451600.51,1354355.38,1024033.43904762,176233.211810736,-1.36231754323013,5.22733611823409,538131.028,899157.49,961422.62,1031771.46,1103681.51,1220172.39,1335129.918,480000,2.13340299801587,1
125,1,"BC","Hogar",141.9,10,6,25.69017,-100.25164,"Clásico","UT_TRAFICO_VEHICULAR","TRAIN","Michelin, Avenida Miguel Alemán, Libertad, Guadalupe, Nuevo León, 67138, México",67138,"Nuevo León",124,202301,202412,531171.23,1829657.4,1474221.52428571,283700.039822783,-2.04762332739117,5.6204604235182,624592.108,1298140.06,1444278.92,1514228.24,1640864.1,1715926.95,1815307.52,490000,3.00861535568513,1
279,1,"C","Hogar",104.2,13,12,25.67484,-100.24412,"Hogar Reunión","UT_DENSIDAD","TRAIN","La Hacienda, Guadalupe, Nuevo León, 67150, México",67150,"Nuevo León",278,202301,202412,577987.42,1819712.9,1141309.02619048,269473.97426877,0.482466990329467,1.20713501399142,629335.754,883973.44,961466.62,1119267.67,1289419.05,1443077.81,1763917.888,490000,2.32920209426628,1
127,1,"BC","Hogar",132,12,5,25.66474,-100.20913,"Hogar Reunión","UT_GAS_URBANA","TRAIN","Oxxo, Álamo, Valles de la Silla, Guadalupe, Nuevo León, 67180, México",67180,"Nuevo León",126,202301,202412,404174.72,1125818.96,881887.748095238,157430.949320794,-1.25210228070617,3.11769002606837,466222.246,737429.65,805227.26,897313.81,976667.69,1027476.81,1118596.366,490000,1.79977091448008,1
706,1,"C","Hogar",120.87,13,0,25.73785,-100.20217,"Hogar Reunión","UT_DENSIDAD","TRAIN","Oxxo, Calle José Ovalle, Apodaca, Nuevo León, 66634, México",66634,"Nuevo León",705,202301,202412,307225.88,1062495.26,827266.594285714,191097.99757731,-1.27852512740587,1.56931472632684,343749.994,578880.15,792091.37,855077.49,952828.66,1026384.79,1057831.01,490000,1.68829917201166,1
129,1,"BC","Base",83.99,13,10,25.6808,-100.24372,"Hogar Reunión","UT_TRAFICO_VEHICULAR","TRAIN","Oxxo, Avenida Azteca, Azteca, Guadalupe, Nuevo León, 67150, México",67150,"Nuevo León",128,202301,202412,463138.41,1181310.78,844267.040476191,143598.322333111,-0.2588908006694,2.21103741729595,511866.312,738899.26,769297.33,840218.83,947689.14,964159.23,1145066.762,480000,1.75888966765873,1
268,1,"C","Base",121.2,13,9,25.69481,-100.23052,"Clásico","UT_GAS_URBANA","TRAIN","Oxxo, Avenida General Lázaro Cárdenas, 18 de Marzo, Guadalupe, Nuevo León, 67138, México",67138,"Nuevo León",267,202301,202412,682016.67,1769852.41,1343805.59666667,266479.289131026,-0.730276962010746,0.522975329846925,734549.41,947146.23,1225733.05,1327472.34,1559868.94,1578897.13,1750247.666,480000,2.79959499305556,1
131,1,"BC","Hogar",99.65,12,8,25.64911,-100.26649,"Clásico","UT_DENSIDAD","TRAIN","Oxxo, Calle Escritores Mexicanos, Contry Sol, Guadalupe, Nuevo León, 64850, México",64850,"Nuevo León",130,202301,202412,456584.8,1120093.14,863832.078095238,137468.392660501,-1.12649473174269,2.94480908288192,502980.99,720038.62,796889.39,878700.79,959570.27,981244.73,1093724.278,490000,1.76292260835763,1
716,1,"C","Hogar",121.21,13,0,25.7105,-100.21547,"Hogar Reunión","UT_DENSIDAD","TRAIN","De la Hacienda, Paseo de San Miguel, Guadalupe, Nuevo León, 67110, México",67110,"Nuevo León",715,202301,202412,606607.24,1569914.84,1178213.27904762,209665.903366084,-0.921132645943147,1.81171226624254,659518.246,904818.85,1113227.33,1221951.96,1284919.82,1381182.51,1540271.612,490000,2.40451689601555,1
722,1,"C","Base",118.3,13,0,25.69569,-100.24609,"Oficinistas","UT_TRAFICO_VEHICULAR","TRAIN","Bilbao, Valles de Linda Vista, Guadalupe, Nuevo León, 67138, México",67138,"Nuevo León",721,202301,202412,454117.29,1470762.2,1155877.16238095,197123.705809455,-2.20480797257171,7.92476823456926,565117.9,1036595.03,1078466.65,1159521.11,1257312.35,1309492.92,1441030.944,480000,2.40807742162698,1
726,1,"C","Hogar",113.96,13,0,25.72278,-100.15421,"Hogar Reunión","UT_DENSIDAD","TRAIN","Oxxo, Mondrian, Misión Real, Apodaca, Nuevo León, 66648, México",66648,"Nuevo León",725,202301,202412,234601.42,1389648.56,969842.824761905,294435.553759648,-1.03417078350667,1.04942581059712,261140.71,643484.06,878644.72,1042801.06,1132860.65,1260173.77,1381774.012,490000,1.97927107094266,1
135,1,"BC","Hogar",124.5,12,7,25.69272,-100.25433,"Clásico","UT_DENSIDAD","TRAIN","Oxxo, Avenida Linda Vista, Linda Vista, Guadalupe, Nuevo León, 67138, México",67138,"Nuevo León",134,202301,202412,814467.45,2165785.66,1799266.05142857,266623.199255146,-2.48145769768946,9.60234235204315,974649.128,1649680.56,1753847.17,1823089.09,1881304.95,2016453,2165060.018,490000,3.6719715335277,1
663,1,"C","Base",115.76,13,0,25.71882,-100.16863,"Hogar Reunión","UT_TRAFICO_VEHICULAR","TRAIN","Gaspar Castaño, Apodaca, Nuevo León, 66648, México",66648,"Nuevo León",662,202301,202412,231515.31,583215.02,442602.903333333,86314.1116732761,-0.566245079928664,0.498250680870024,246981.472,339111.97,398432.03,451979.2,497559.37,527427.99,581736.924,480000,0.922089381944445,0
639,1,"C","Hogar",113.85,13,0,25.71143,-100.15224,"Hogar Reunión","UT_DENSIDAD","TRAIN","Calle Hacienda La Escondida, Hacienda Las Margaritas, Apodaca, Nuevo León, 66647, México",66647,"Nuevo León",638,202301,202412,552195.13,1415168,1106255.61619048,215234.511999767,-1.14650737965371,1.10493600883198,587564.864,756694.37,1023712.68,1176198.04,1240077.84,1301505.95,1402559.48,490000,2.25766452283771,1
642,1,"C","Receso",88.39,13,0,25.70438,-100.22197,"Oficinistas","UT_TRAFICO_PEATONAL","TRAIN","José Manuel, Guadalupe, Nuevo León, 67110, México",67110,"Nuevo León",641,202301,202412,345811.34,728688.63,593718.947142857,93187.3652066779,-0.771092565043323,0.938895550032135,371332.654,508544.59,536369.73,592086.38,663156.89,706155.44,725707.38,516000,1.15061811461794,1
299,1,"C","Hogar",94,10,9,25.68426,-100.21374,"Hogar Reunión","UT_TRAFICO_VEHICULAR","TRAIN","Oxxo, Avenida Adolfo López Mateos, Guadalupe, Nuevo León, 67118, México",67118,"Nuevo León",298,202301,202412,362947.87,1105959.95,881021.732380952,166164.081775219,-1.44626789938764,3.70573344289429,425156.284,745592.84,835812.28,904957.63,961718.81,1065754.89,1104651.57,490000,1.79800353547133,1
298,1,"C","Peatonal",103.3,13,5,25.67933,-100.24593,"Oficinistas","UT_TRAFICO_PEATONAL","TRAIN","Avenida Benito Juárez, Guerra, Guadalupe, Nuevo León, 67150, México",67150,"Nuevo León",297,202301,202412,496853.03,1539033.53,942234.233809524,241673.747429388,0.524355673474786,0.67838678561204,523605.932,650420.04,787502.8,943863.71,1069616.88,1227505.27,1490377.876,420000,2.24341484240363,1
644,1,"C","Base",105.69,13,0,25.7036,-100.15854,"Hogar Reunión","UT_TRAFICO_PEATONAL","TRAIN","Terminal Valle Soleado, Calle Magallanes, Privadas de San Miguel, Guadalupe, Nuevo León, 66647, México",66647,"Nuevo León",643,202301,202412,228133.03,865282.4,602058.426666667,139718.993865504,-0.384080408876747,1.92742897701738,271643.844,479357.58,539166,606727.4,670894.23,749501.38,864557.588,480000,1.25428838888889,1
296,1,"C","Hogar",86,13,5,25.66105,-100.25257,"Clásico","UT_GAS_URBANA","TRAIN","Oxxo, Bosques del Valle, Bosques de la Pastora, Guadalupe, Nuevo León, 67176, México",67176,"Nuevo León",295,202301,202412,639718.08,1549094.81,1286958.86714286,180506.160115298,-2.33774390489573,8.13990591690327,734343.196,1164227.12,1236952.04,1314359.25,1391910.85,1439540.17,1527637.5,490000,2.62644666763848,1
652,1,"C","Base",113.23,14,0,25.65635,-100.26234,"Clásico","UT_TRAFICO_VEHICULAR","TRAIN","Alfredo Bernando Nóbel, Contry Sol, Guadalupe, Nuevo León, 67174, México",67174,"Nuevo León",651,202301,202412,419073.21,944494.99,762431.619047619,108041.114782707,-1.405671866361,4.30896823647638,467849.192,663046.91,708575,766904.37,825390.25,884228.12,932828.634,480000,1.58839920634921,1
653,1,"C","Hogar",112.09,13,0,25.69885,-100.12075,"Clásico","UT_DENSIDAD","TRAIN","Fatima, Apodaca, Nuevo León, 66670, México",66670,"Nuevo León",652,202301,202412,287065.93,1009293.21,697016.464761905,182411.328952681,-0.528800574058665,0.764832597544391,291937.754,585378.51,626077.61,691690.46,814486.81,891292.51,1002999.336,490000,1.42248258114674,1
292,1,"C","Hogar",114,13,11,25.72188,-100.20232,"Hogar Reunión","UT_GAS_URBANA","TRAIN","Oxxo, Avenida Acapulco, Los Cristales, Guadalupe, Nuevo León, 67112, México",67112,"Nuevo León",291,202301,202412,520276.33,1718084.42,1375956.98142857,251615.122397673,-1.94421511471862,6.09118510543252,643441.186,1171295.6,1309211.57,1406907.85,1481765,1631401.56,1701309.08,490000,2.80807547230321,1
291,1,"C","Hogar",108.91,13,10,25.68419,-100.24388,"Hogar Reunión","UT_DENSIDAD","TRAIN","Oxxo, Apache, Azteca, Guadalupe, Nuevo León, 67138, México",67138,"Nuevo León",290,202301,202412,602663.23,1540683.33,1310242.55380952,204856.165781972,-2.00946909271758,6.54130863869328,713175.25,1180697.6,1228814.8,1302572.06,1457661.03,1511570.06,1539714.982,490000,2.67396439552964,1
731,1,"C","Base",117.97,15,0,25.67493,-100.20706,"Hogar Reunión","UT_GAS_URBANA","TRAIN","Aarón Sáenz, Nuevo San Sebastian, Guadalupe, Nuevo León, 67188, México",67188,"Nuevo León",730,202301,202412,417115.66,1062647.31,804187.017619048,157389.433631074,-0.560036670481048,0.460372382489864,450856.084,588060.16,716862.12,799936.46,941287.31,982689.94,1051660.546,480000,1.67538962003968,1
289,1,"C","Hogar",114.04,13,9,25.70314,-100.23122,"Hogar Reunión","UT_GAS_URBANA","TRAIN","Oxxo, Avenida Tauro, La Purisima, Guadalupe, Nuevo León, 67129, México",67129,"Nuevo León",288,202301,202412,350858.68,910668.05,701430.583809524,128236.976129845,-1.24549049405691,1.83335410385369,376808.334,511363.34,680255.64,725293.82,786527.07,799529.65,890473.192,490000,1.43149098736638,1
288,1,"D","Base",104,13,11,25.67442,-100.20493,"Hogar Reunión","UT_TRAFICO_VEHICULAR","TRAIN","Avenida San Sebastián, San Sebastián, Guadalupe, Nuevo León, 67188, México",67188,"Nuevo León",287,202301,202412,402114.42,988856.41,827004.651428571,135572.957559885,-1.54875777288188,3.63151015777044,456585.03,682277.48,768049.39,865952.3,933536.34,964047.05,985115.648,480000,1.72292635714286,1
667,1,"C","Hogar",122.19,13,0,25.73719,-100.15527,"Hogar Reunión","UT_DENSIDAD","TRAIN","Apodaca, Nuevo León, 66644, México",66644,"Nuevo León",666,202301,202412,532986.46,1453105.47,980900.478095238,219639.080615253,-0.00335143818392295,0.0718839558263822,554136.848,755031.73,841822.68,963033.53,1130361.7,1190777.05,1418365.74,490000,2.00183771039845,1
668,1,"C","Hogar",93.08,13,0,25.72812,-100.18563,"Hogar Reunión","UT_DENSIDAD","TRAIN","Oxxo, Calle Concepción del Oro, Cañada Blanca, Guadalupe, Nuevo León, 66634, México",66634,"Nuevo León",667,202301,202412,159705.05,1179090.61,957173.125714286,261857.980453791,-2.43310666888533,5.5702949070464,182179.016,856424.73,952899.71,1029880.24,1085264.29,1124525.24,1177298.522,490000,1.95341454227405,1
285,1,"A","Hogar",130.46,13,7,25.64192,-100.26826,"Clásico","UT_DENSIDAD","TRAIN","Oxxo, Calle Muralistas, Contry La Silla, Monterrey, Guadalupe, Nuevo León, 64850, México",64850,"Nuevo León",284,202301,202412,990245.16,2426458.27,2078949.05285714,302667.957584499,-2.44439024171054,8.1416682408878,1149818.27,1844247.46,1997866.26,2170196.18,2223420.75,2330597.85,2415153.312,490000,4.24275316909621,1
671,1,"C","Base",114.21,13,0,25.67863,-100.26725,"Hogar Reunión","UT_TRAFICO_VEHICULAR","TRAIN","202, Calle José María Arteaga, Esmeralda, Guadalupe, Nuevo León, 67140, México",67140,"Nuevo León",670,202301,202412,501526.27,1293021.27,1072566.29809524,161381.340375672,-2.15281182898006,7.57266648639902,594343.93,975500.34,1021910.22,1083098.23,1175480.59,1221027.89,1285771.776,480000,2.23451312103175,1
674,1,"C","Hogar",114.34,13,0,25.69528,-100.20643,"Hogar Reunión","UT_DENSIDAD","TRAIN","Avenida Circunvalación, Nuevo San Rafael, Guadalupe, Nuevo León, 67118, México",67118,"Nuevo León",673,202301,202412,455921.11,1278277.73,979873.238095238,218766.374797854,-0.693646375069446,-0.000690684286906773,499935.234,697894.48,908895.32,970986.89,1174246.35,1226968.57,1270749.318,490000,1.99974130223518,1
281,1,"BC","Hogar",121.54,13,8,25.69659,-100.25507,"Hogar Reunión","UT_DENSIDAD","TRAIN","Vista Boulevard, Linda Vista, Guadalupe, Nuevo León, 67138, México",67138,"Nuevo León",280,202301,202412,858253.79,2255244.04,1781733.51380952,278617.091150968,-1.77479233360692,5.50190208982655,979815.88,1516148.59,1706166.25,1870504.36,1923095.04,1953779.1,2217558.006,490000,3.63619084450923,1
677,1,"C","Hogar",110.81,13,0,25.68325,-100.23067,"Parada Técnica","UT_DENSIDAD","TRAIN","Puebla, Ignacio Zaragoza, Guadalupe, Nuevo León, 67150, México",67150,"Nuevo León",676,202301,202412,216088.8,718189.73,544402.785714286,113987.009240927,-1.36955725197036,2.97475783095969,236159.548,458162.04,521578.22,559223.24,589998.22,647627.42,715697.262,490000,1.11102609329446,1
834,1,"C","Hogar",101.33,13,0,25.70647,-100.22508,"Hogar Reunión","UT_DENSIDAD","TRAIN","Tritón, Nueva Linda Vista, Guadalupe, Nuevo León, 67129, México",67129,"Nuevo León",832,202309,202412,66216.42,838838.1,570505.648461538,188594.842973819,-1.52980615920479,3.92229269523167,106819.2384,428985.25,532584.1,567156.02,676786.65,735125.844,827173.2888,490000,1.16429724175824,1
792,1,"C","Peatonal",87.25,0,0,25.67762,-100.25978,"Oficinistas","UT_TRAFICO_PEATONAL","TRAIN","207, Calle Miguel Hidalgo y Costilla, Centro, Guadalupe, Nuevo León, 64590, México",64590,"Nuevo León",790,202301,202412,329962.3,973377.69,694875.571904762,184111.728103531,-0.326245542234625,-0.58360593547331,336014.208,473698.99,617326.61,663282.02,860000.2,932411.37,965207.846,420000,1.65446564739229,1
164,1,"CD","Base",18.72,12,9,25.73369,-100.19908,"Hogar Reunión","UT_GAS_URBANA","TRAIN","Oxxo, Ignacio Sepúlveda, Apodaca, Nuevo León, 66478, México",66478,"Nuevo León",163,202301,202412,470030.16,1346803.16,1038173.84047619,198807.996588713,-1.1530131844397,2.08730788886157,527886.682,801930.78,963891.96,1083007.94,1137818.57,1231798.36,1331143.282,480000,2.16286216765873,1
231,1,"CD","Hogar",116.5,13,9,25.70295,-100.25852,"Hogar Reunión","UT_GAS_URBANA","TRAIN","Oxxo, Adolfo Duclós Salinas, Industria del Hierro, Guadalupe, Nuevo León, 66491, México",66491,"Nuevo León",230,202301,202412,529670.05,1492958.36,1138031.18333333,192062.727599667,-1.23383599650822,4.50796624439793,617067.082,992838.78,1077145.43,1132037.86,1200157.6,1314809.94,1474157.974,490000,2.32251261904762,1
823,1,"C","Hogar",108.66,0,0,25.66404,-100.23363,"Hogar Reunión","UT_DENSIDAD","TRAIN","San Luis Potosí, Vivienda Popular, Guadalupe, Nuevo León, 67160, México",67160,"Nuevo León",821,202306,202412,103314.02,990380.3,702649.719375,208408.719406173,-1.57356124157406,3.98006404443592,153753.8285,532892.325,640027.185,717485.91,799037.585,921433.57,980912.6015,490000,1.43397901913265,1
824,1,"C","Hogar",97.92,0,0,25.7371,-100.16613,"Hogar Reunión","UT_DENSIDAD","TRAIN","Desierto de Sonora, Balcones de Huinalá, Apodaca, Nuevo León, 66648, México",66648,"Nuevo León",822,202308,202412,4840.31,861361.84,532329.760714286,198261.790082445,-1.0763723367827,3.56763599248281,60880.2862,439650.097,462937.0475,528999.955,581024.5175,749662.087,847589.5633,490000,1.08638726676385,1
182,1,"BC","Hogar",111.9,13,5,25.68312,-100.2139,"Hogar Reunión","UT_DENSIDAD","TRAIN","Avenida Adolfo López Mateos, Guadalupe, Nuevo León, 67118, México",67118,"Nuevo León",181,202301,202412,745706.06,1964283.27,1535507.80095238,240704.658172459,-1.6285046239187,5.32192507825129,850718.48,1305149.99,1468720.68,1559194.58,1679773.83,1766949.2,1926635.866,490000,3.13368938969874,1
223,1,"BC","Hogar",128.96,12,9,25.66976,-100.23605,"Hogar Reunión","UT_GAS_URBANA","TRAIN","Avenida Pablo Livas, Las Villas, Guadalupe, Nuevo León, 67160, México",67160,"Nuevo León",222,202301,202412,665925.45,1687451.32,1347746.96619048,217266.153038393,-1.35983389884429,3.83433159349174,768383.85,1183228.78,1199669.96,1348829.05,1501455.42,1572076.89,1669640.448,490000,2.75050401263363,1
828,1,"C","Hogar",0,0,0,25.6678,-100.2209,"Hogar Reunión","UT_DENSIDAD","TRAIN","Amapola, Parques de Guadalupe, Guadalupe, Nuevo León, 67180, México",67180,"Nuevo León",826,202311,202412,3394.06,689848.6,481181.35,201553.279705583,-1.35131536494127,2.29352630067581,32538.415,294837.61,430002.6,490142.52,650972.285,668212.33,687684.973,490000,0.982002755102041,0
832,1,"C","Hogar",66.04,0,0,25.66925,-100.237,"Hogar Reunión","UT_DENSIDAD","TRAIN","Avenida las Villas, Las Villas, Guadalupe, Nuevo León, 67160, México",67160,"Nuevo León",830,202311,202412,4935.17,727463.24,451285.709090909,200935.028656272,-0.985631688449089,1.33089036684396,29946.909,255052.56,379006.78,464648.19,583451.855,633020.31,718018.947,490000,0.920991243042672,0
245,1,"D","Hogar",116,10,8,25.73065,-100.18657,"Hogar Reunión","UT_DENSIDAD","TRAIN","Oxxo, Calle Antiguo Camino a Huinalá, Apodaca, Nuevo León, 66634, México",66634,"Nuevo León",244,202301,202412,360371.68,1128227.81,879354.341904762,193914.681552712,-1.70008155402043,3.15401296349309,365650.282,733354.14,851129.86,894860.67,1008837.71,1057763.04,1115986.01,490000,1.79460069776482,1
188,1,"BC","Receso",95.3,13,7,25.68763,-100.24615,"Parada Técnica","UT_GAS_URBANA","TRAIN","Oxxo, Avenida Doctor Ignacio Morones Prieto, Guadalupe, Nuevo León, 67138, México",67138,"Nuevo León",187,202301,202412,409548.09,980799.18,770365.384761905,131285.852225065,-0.766743735313845,1.5960422261815,448322.128,627576.58,707358.98,761501.81,863161.38,928678.25,974924.24,516000,1.4929561720192,1
191,1,"CD","Receso",131.5,11,0,25.69273,-100.24576,"Clásico","UT_GAS_URBANA","TRAIN","7-Eleven, Avenida Las Américas, Valles de Linda Vista, Guadalupe, Nuevo León, 67138, México",67138,"Nuevo León",190,202301,202412,248865.6,635120.72,454438.053809524,99400.0364485527,-0.216697989697697,-0.3385703587512,259803.332,311954.49,393661.72,455684.45,528163.48,557001.54,627543.186,516000,0.880693902731635,0
847,1,"C","Hogar",100.4,13,0,25.71567,-100.1601,"Hogar Reunión","UT_GAS_URBANA","TRAIN","Hacienda Las Margaritas, Apodaca, Nuevo León, 66647, México",66647,"Nuevo León",845,202311,202412,6002.45,437080.42,250339.039090909,131171.623474863,-0.275800768898059,-0.428359875359748,17922.005,125198,167741.7,251427.08,353091.715,397860.96,433158.474,490000,0.510895998144712,0
193,1,"CD","Hogar",95.54,10,9,25.73871,-100.18913,"Hogar Reunión","UT_DENSIDAD","TRAIN","Oxxo, Avenida Héctor Caballero, Corporación Mitsuba de México S.A. de C.V., Apodaca, Nuevo León, 66634, México",66634,"Nuevo León",192,202301,202412,432039.79,1243117.03,971142.138571429,223754.880285647,-1.17704402373393,0.793224496317766,447808.548,623971.18,882415.45,1026018.34,1123384.68,1196006.21,1234358.106,490000,1.98192273177843,1
212,1,"CD","Base",134.24,12,10,25.69344,-100.1831,"Parada Técnica","UT_CARRETERA_GAS","TRAIN","Oxxo, Boulevard Miguel de la Madrid, Guadalupe, Nuevo León, 67116, México",67116,"Nuevo León",211,202301,202412,775998.98,2189172.29,1731331.8152381,332857.154277064,-1.20205622158123,2.20977685293799,860475.742,1389001.33,1579896.11,1749751.14,1948704.07,2056155.09,2184792.766,480000,3.60694128174603,1
211,1,"C","Hogar",127.62,12,11,25.74447,-100.17476,"Hogar Reunión","UT_DENSIDAD","TRAIN","Comida Coreana, Baja California, Apodaca, Nuevo León, 66645, México",66645,"Nuevo León",210,202301,202412,571933.74,1613240.09,1260740.01380952,231816.39792976,-1.44047929532004,3.34392551870846,622117.196,1052269.42,1200881.03,1283294.06,1380661.56,1473371.35,1605646.172,490000,2.57293880369291,1
199,1,"CD","Base",113,11,11,25.72332,-100.19058,"Hogar Reunión","UT_TRAFICO_VEHICULAR","TRAIN","Oxxo, Avenida Acapulco, Guadalupe, Nuevo León, 67112, México",67112,"Nuevo León",198,202301,202412,1597.44,986916.19,656658.954285714,232616.249564599,-1.6005118953399,2.63780750515466,34245.078,366706.48,617943.8,730392.76,799921.33,807685.82,962532.122,480000,1.36803948809524,1
873,1,"C","Receso",58.12,0,0,25.69741,-100.13975,"Parada Técnica","UT_TRAFICO_VEHICULAR","TRAIN","Calle Valle De Los Nardos, Parque Industrial FINSA Guadalupe-Aeropuerto, Guadalupe, Nuevo León, 66647, México",66647,"Nuevo León",869,202403,202412,10186.6,266343.39,183363.58,98857.8432816712,-1.16327068986328,-0.0658425107027014,14651.023,54830.83,133972.51,239905.73,249582.16,258936.492,265602.7002,516000,0.355355775193798,0
254,1,"C","Hogar",113,12,7,25.66872,-100.2344,"Hogar Reunión","UT_GAS_URBANA","TRAIN","Oxxo, Avenida Pablo Livas, Las Villas, Guadalupe, Nuevo León, 67160, México",67160,"Nuevo León",253,202301,202412,446202.92,1290966.31,952636.946666667,155938.962190258,-1.27554511957294,5.67732917814978,521544.188,838723.96,893880.72,948859.58,1029660.87,1086364.6,1253100.324,490000,1.94415703401361,1
735,1,"C","Hogar",83.57,12,0,25.71611,-100.18296,"Hogar Reunión","UT_DENSIDAD","TRAIN","Avenida Mixcoac, Mixcoac, Guadalupe, Nuevo León, 67112, México",67112,"Nuevo León",734,202301,202412,520175.19,1664251.08,1263278.9647619,251851.530254302,-1.19935790634018,2.56272659425653,602689.402,1037147.82,1129627.76,1286422.82,1451850.77,1502517.1,1636339.77,490000,2.57812033624879,1
746,1,"C","Hogar",104.1,15,0,25.6867,-100.19352,"Hogar Reunión","UT_DENSIDAD","TRAIN","Avenida General Plutarco Elías Calles, Guadalupe, Nuevo León, 67169, México",67169,"Nuevo León",745,202301,202412,302475.48,862592.17,659437.328095238,121256.221846881,-1.18083074880618,2.62782506552393,345133.554,518204.23,610532.88,679961.75,731338.59,764829.4,847937.6,490000,1.34579046550049,1
141,1,"BC","Hogar",98.5,11,6,25.68098,-100.23912,"Hogar Reunión","UT_DENSIDAD","TRAIN","Agua Roja, La Fuente, Guadalupe, Nuevo León, 67150, México",67150,"Nuevo León",140,202301,202412,115339.51,1675300.99,1224569.77857143,424995.341062551,-1.89380512544656,2.92794191574139,122351.848,574820.34,1241417.04,1331923.22,1470840.59,1535329.97,1654375.242,490000,2.49912199708455,1
259,1,"C","Base",99.08,10,0,25.67765,-100.2596,"Oficinistas","UT_TRAFICO_PEATONAL","TRAIN","123, Calle Miguel Hidalgo y Costilla, Centro, Guadalupe, Nuevo León, 64590, México",64590,"Nuevo León",258,202301,202412,169758.56,884149.11,627209.910952381,154245.634842001,-1.18796053765278,2.93796085668666,213790.476,527782.15,560023.23,628396.3,726979.01,787944.08,868226.302,480000,1.30668731448413,1
753,1,"C","Hogar",103.64,14,0,25.72788,-100.18008,"Hogar Reunión","UT_DENSIDAD","TRAIN","Avenida Mixcoac, Cañada Blanca, Guadalupe, Nuevo León, 66648, México",66648,"Nuevo León",752,202301,202412,305501.02,862402.78,725700.751428571,116056.73475699,-2.40419484066702,8.46698264720561,370796.248,647791.07,692534.28,733584.83,797871.44,822656.65,860913.294,490000,1.48102194169096,1
754,1,"C","Hogar",119.75,15,0,25.71732,-100.19217,"Hogar Reunión","UT_DENSIDAD","TRAIN","Calle Premier, Guadalupe, Nuevo León, 67112, México",67112,"Nuevo León",753,202301,202412,288799.95,1097471.97,765839.700952381,198303.541889181,-0.977158781252362,0.801019361770911,303198.5,551080.7,635575.93,848146.73,870117.54,928987.29,1069450.956,490000,1.56293816520894,1
145,1,"BC","Hogar",112.5,13,6,25.66404,-100.21449,"Hogar Reunión","UT_DENSIDAD","TRAIN","Oxxo, Emiliano Zapata, Guadalupe Victoria, Guadalupe, Nuevo León, 67180, México",67180,"Nuevo León",144,202301,202412,446281.1,1333251.98,1041933.78857143,197811.255768871,-1.08688334447267,2.98402372373172,527938.306,913759.55,921611.67,1052296.65,1135191.52,1296626.6,1326300.558,490000,2.12639548688047,1
765,1,"C","Hogar",94.42,13,0,25.69325,-100.23738,"Oficinistas","UT_DENSIDAD","TRAIN","14 de Mayo, Riberas de la Purisima, Guadalupe, Nuevo León, 67138, México",67138,"Nuevo León",764,202301,202412,803395,2103685.44,1619241.30333333,294275.273890607,-1.19581306745182,1.92065908966736,869226.948,1210344.9,1493660.05,1662645.64,1798326.42,1859534.24,2065065.106,490000,3.30457408843537,1
766,1,"C","Base",118.52,15,0,25.72372,-100.14054,"Hogar Reunión","UT_TRAFICO_VEHICULAR","TRAIN","Accadia Residencial, Apodaca, Nuevo León, 66647, México",66647,"Nuevo León",765,202301,202412,487784.62,1267954.02,986274.002380952,176510.542053403,-0.895491318159375,1.88108005554148,545509.63,818341.81,899814.44,989872.08,1104156.47,1195426.66,1256232.006,480000,2.05473750496032,1
395,1,"C","Hogar",79.55,10,4,25.67661,-100.24879,"Hogar Reunión","UT_DENSIDAD","TRAIN","820, Calle Guadalupe, Centro, Guadalupe, Nuevo León, 64590, México",64590,"Nuevo León",394,202301,202412,513202.36,1371861.42,1161940.04047619,184419.962404246,-2.13453289665243,7.30100170730163,614841.96,1041000.72,1108153.23,1173766.74,1259534.43,1360550.91,1370726.826,490000,2.37130620505345,1
253,1,"C","Hogar",117,12,11,25.72968,-100.17269,"Hogar Reunión","UT_DENSIDAD","TRAIN","Oxxo, Avenida Los Suizos, Apodaca, Nuevo León, 66648, México",66648,"Nuevo León",252,202301,202412,392862.77,1182266.32,878176.304285714,161822.051903166,-1.04830233428065,3.15934721620006,454861.474,747570.9,802982.5,870691.96,983045.18,1036104.92,1153500.798,490000,1.7921965393586,1
769,1,"C","Base",108.8,15,0,25.69461,-100.17078,"Oficinistas","UT_TRAFICO_VEHICULAR","TRAIN","Boulevard Miguel de la Madrid, Guadalupe, Nuevo León, 67116, México",67116,"Nuevo León",767,202301,202412,370988.66,1377139.09,993960.428095238,224439.655299264,-0.999099573559782,1.71503932971156,434917.938,715129.36,865693.82,1013223.26,1155245.97,1180441.57,1346123.298,480000,2.07075089186508,1
152,1,"BC","Hogar",102.1,13,8,25.66861,-100.24023,"Hogar Reunión","UT_DENSIDAD","TRAIN","La Quinta, Guadalupe, Nuevo León, 67160, México",67160,"Nuevo León",151,202301,202412,508767.95,1407542.26,1057375.76380952,180409.582672512,-1.05075596694171,3.68054542339743,581647.144,891705.3,987785.65,1075443.33,1144499.88,1226388.62,1386386.818,490000,2.15790972206025,1
783,1,"C","Hogar",114.47,14,0,25.6989,-100.1506,"Hogar Reunión","UT_DENSIDAD","TRAIN","Calle José María Coss, Guadalupe, Nuevo León, 66647, México",66647,"Nuevo León",781,202301,202412,432606.51,1098427.82,806711.535714286,214615.625693878,-0.54710063934938,-1.01181761708394,436937.592,513081.78,578318.6,878701.56,932464.69,1074868.08,1094906.946,490000,1.6463500728863,1
789,1,"C","Hogar",100.7,0,0,25.71404,-100.17443,"Hogar Reunión","UT_DENSIDAD","TRAIN","Miguel Hidalgo y Costilla, San Miguel, Apodaca, Nuevo León, 66648, México",66648,"Nuevo León",787,202301,202412,334211.64,1105800.65,761465.882380952,189228.853402741,-0.259909830432098,0.135121197899892,367800.978,509865.01,684728.79,775986.54,867649.87,1000557.17,1093336.956,490000,1.55401200485909,1
248,1,"CD","Base",100.28,13,7,25.70751,-100.19946,"Oficinistas","UT_GAS_URBANA","TRAIN","Oxxo, Avenida Adolfo Ruíz Cortines, Guadalupe, Nuevo León, 67112, México",67112,"Nuevo León",247,202301,202412,337148.64,1061774.42,852313.085714286,154414.045634421,-1.79779557585057,5.47994826654761,408380.122,724093.03,816743.88,871858.69,961552.09,1014764.4,1054025.712,480000,1.77565226190476,1
156,1,"BC","Hogar",115,11,0,25.67567,-100.22221,"Hogar Reunión","UT_DENSIDAD","TRAIN","Avenida Benito Juárez, Guadalupe Chavez, Guadalupe, Nuevo León, 67180, México",67180,"Nuevo León",155,202301,202412,360977.73,1493883.63,1150550.61714286,258952.909870509,-1.57480786539927,3.60920607637226,423951.258,995973.89,1062019.46,1179684.94,1264501.41,1433843.94,1482094.668,490000,2.34806248396501,1
247,1,"D","Hogar",104.6,13,10,25.69494,-100.21911,"Hogar Reunión","UT_DENSIDAD","TRAIN","Avenida San Rafael, San Rafael, Guadalupe, Nuevo León, 67118, México",67118,"Nuevo León",246,202301,202412,491304.79,1386478.68,944772.310952381,287611.163064774,-0.322166788674767,-1.21967303037536,495340.644,512198.04,680378.72,974887.97,1132639.31,1243742.12,1373429.324,490000,1.92810675704568,1
474,1,"C","Hogar",115.79,13,11,25.71698,-100.13154,"Hogar Reunión","UT_DENSIDAD","TRAIN","Oxxo, Avenida Lomas de México, PRADERAS DE HUINALA, Apodaca, Nuevo León, 66647, México",66647,"Nuevo León",473,202301,202412,314382.11,924163.14,749780.098571429,126272.109276051,-1.99207976916816,6.58767258902268,378052.2,663987.81,709146.11,768860.31,821407.22,872743.19,914069.776,490000,1.5301634664723,1
453,1,"C","Base",107.02,13,8,25.74442,-100.16092,"Hogar Reunión","UT_GAS_URBANA","TRAIN","Oxxo, Apodaca a Villa Juárez, Apodaca, Nuevo León, 66644, México",66644,"Nuevo León",452,202301,202412,422217.62,1202570.07,887672.238571429,176835.308138149,-0.432123653962205,1.30470164458508,483634.52,733951.55,771828.19,869096.36,990038.75,1072609.82,1200584.174,480000,1.84931716369048,1
455,1,"C","Hogar",119.51,13,7,25.73055,-100.18982,"Hogar Reunión","UT_DENSIDAD","TRAIN","Avenida Guadalajara, Josefa Zozaya, Guadalupe, Apodaca, Nuevo León, 66634, México",66634,"Nuevo León",454,202301,202412,263932.98,731956.17,476428.439047619,141403.386857039,0.219805933070211,-0.940492410372228,265769.888,298889.26,380924.33,475897.47,574214.02,673934.05,722273.596,490000,0.972302936831876,0
366,1,"C","Hogar",100,10,7,25.66606,-100.26935,"Hogar Reunión","UT_GAS_URBANA","TRAIN","Oxxo, Valle de México, Valles de Chapultepec, Guadalupe, Nuevo León, 67140, México",67140,"Nuevo León",365,202301,202412,420136.66,1162072.7,876869.929523809,180922.769650532,-1.40993247080196,2.03367312030673,427343.802,618660.06,853572.63,934336.04,959839.46,1018696.21,1141451.184,490000,1.78953046841594,1
365,1,"C","Base",97.54,13,5,25.6751,-100.21091,"Oficinistas","UT_TRAFICO_PEATONAL","TRAIN","Oxxo, Fresno, Chulavista, Guadalupe, Nuevo León, 67180, México",67180,"Nuevo León",364,202301,202412,600620.99,1570466.34,1287667.0552381,212649.839878695,-1.55563502101948,4.54016292903044,692381.202,1168612.65,1182949.95,1289043.32,1459726.39,1495250.33,1568630.642,480000,2.6826396984127,1
456,1,"C","Hogar",127.9,13,10,25.74066,-100.1661,"Hogar Reunión","UT_DENSIDAD","TRAIN","Oxxo, Antiguo Camino Monterrey - Huinalá, Centro de Huinalá, Apodaca, Nuevo León, 66644, México",66644,"Nuevo León",455,202301,202412,460987.02,1322577.87,1018558.87571429,194211.197480047,-0.977183684426191,2.21898171987776,532763.802,827327.12,888949.32,1051765.41,1130434.26,1208440.28,1321957.292,490000,2.07869158309038,1
457,1,"C","Hogar",81.3,10,7,25.73088,-100.15723,"Hogar Reunión","UT_DENSIDAD","TRAIN","Prolongación Rodesia, Apodaca, Nuevo León, 66648, México",66648,"Nuevo León",456,202301,202412,313374.81,1113948.05,802586.665714286,190922.926189517,-0.580547683951219,0.706875322168641,369327.37,602311,711089.71,836522.98,910483.62,1038306.74,1103471.828,490000,1.63793197084548,1
458,1,"C","Hogar",101.46,13,5,25.70524,-100.20732,"Hogar Reunión","UT_DENSIDAD","TRAIN","Calle el Fortín, Villa de San Miguel, Guadalupe, Nuevo León, 67118, México",67118,"Nuevo León",457,202301,202412,304937.28,978655.98,767107.105714286,172047.254194469,-1.63572492381535,2.18072973941221,324458.268,477136.62,746453.19,829891.14,865373.37,897526.17,967433.9,490000,1.56552470553936,1
361,1,"C","Hogar",93,12,5,25.71936,-100.16773,"Hogar Reunión","UT_DENSIDAD","TRAIN","Oxxo, Camino a los Magueyes, Valle de San Miguel, Apodaca, Nuevo León, 66648, México",66648,"Nuevo León",360,202301,202412,285566.94,1246759.88,918118.841428571,208538.552239493,-1.27361042502544,3.10873433218542,367921.802,723885.69,787214.19,953242.21,1043194.81,1119768.31,1231996.196,490000,1.8737119212828,1
464,1,"C","Hogar",138.92,13,6,25.70318,-100.24274,"Hogar Reunión","UT_DENSIDAD","TRAIN","Doctor Román de los Santos, La Luz, Guadalupe, Nuevo León, 66494, México",66494,"Nuevo León",463,202301,202412,158746.28,722196.65,544095.18,138262.549442843,-1.93340641784809,4.13575501659822,163155.606,498004.62,522605.2,555075.03,614467.41,657739.05,716323.72,490000,1.11039832653061,1
358,1,"C","Base",93,10,11,25.70128,-100.16365,"Hogar Reunión","UT_GAS_URBANA","TRAIN","Oxxo, Lasso, Privadas de San Miguel, Guadalupe, Nuevo León, 66647, México",66647,"Nuevo León",357,202301,202412,260238.36,936276.77,732835.48952381,169911.211593367,-1.51774228067923,2.8439785677243,277047.398,637255.07,688825.05,744643.93,838223.84,922537.1,933892.838,480000,1.5267406031746,1
447,1,"C","Hogar",83.9,13,5,25.73034,-100.16336,"Hogar Reunión","UT_TRAFICO_VEHICULAR","TRAIN","Avenida Rodesia del Norte, Apodaca, Nuevo León, 66648, México",66648,"Nuevo León",446,202301,202412,206125.28,890247.42,597768.308095238,184025.013192777,-0.670046092623841,-0.361574559868527,223487.054,323474.51,487829.51,644665.6,743666,773005.64,871250.402,490000,1.21993532264334,1
356,1,"C","Hogar",77,10,8,25.66098,-100.26814,"Hogar Reunión","UT_TRAFICO_VEHICULAR","TRAIN","2813, Prolongacíon Churubusco, Valles de Chapultepec, Guadalupe, Nuevo León, 67140, México",67140,"Nuevo León",355,202301,202412,641202.87,1492802.41,1272193.31,186034.733466725,-1.97437684626634,5.90739618416455,731483.536,1114928.3,1191448.05,1294806.47,1379141.27,1456184.01,1491400.93,490000,2.59631287755102,1
355,1,"C","Hogar",90,10,6,25.66743,-100.25439,"Hogar Reunión","UT_TRAFICO_VEHICULAR","TRAIN","La Pastora, Guadalupe, Nuevo León, 67174, México",67174,"Nuevo León",354,202301,202412,29033.99,1711314.44,1179754.54,369908.55795295,-1.885633913276,4.18420860814296,124258.764,664546.06,1148731.09,1241938.65,1382066.37,1451989.75,1659574.314,490000,2.40766232653061,1
484,1,"C","Hogar",115.75,13,10,25.71093,-100.13501,"Hogar Reunión","UT_DENSIDAD","TRAIN","Lomas del Tíbet, Lomas de la Paz, Apodaca, Nuevo León, 66647, México",66647,"Nuevo León",483,202301,202412,766551.57,2028460.51,1594541.86904762,277281.850122912,-1.10575543304658,2.98088453212936,868133.972,1314523.89,1473324.81,1608774.86,1773514.14,1931102.59,2022680.878,490000,3.25416707968902,1
493,1,"C","Base",119.41,13,9,25.68103,-100.25271,"Hogar Reunión","UT_TRAFICO_VEHICULAR","TRAIN","Oxxo, Calle General Nicolás Bravo, La Huerta, Guadalupe, Nuevo León, 64590, México",64590,"Nuevo León",492,202301,202412,732537.91,1875960.12,1462209.4,262039.00482381,-0.989847264129987,1.87315445146536,802301.608,1168172.81,1367977.19,1515028.27,1581326.49,1728914.77,1870873.332,480000,3.04626958333333,1
352,1,"C","Base",105,10,8,25.74532,-100.17814,"Parada Técnica","UT_GAS_URBANA","TRAIN","Oxxo, Calle 21 de Marzo, Apodaca, Nuevo León, 66645, México",66645,"Nuevo León",351,202301,202412,315604.65,1512594.11,1135441.18619048,247487.449711195,-1.59771125835512,5.48359878847582,441630.282,954429.91,1030304.58,1117270.77,1245538.11,1393790.73,1510691.074,480000,2.36550247123016,1
351,1,"C","Base",93,10,7,25.67929,-100.26519,"Oficinistas","UT_GAS_URBANA","TRAIN","Oxxo, Avenida Benito Juárez, Centro, Guadalupe, Nuevo León, 64590, México",64590,"Nuevo León",350,202301,202412,405130.39,1059680.37,879341.012857143,149087.205768294,-1.70007805329575,4.17280397859866,455795.444,739392.02,836545.8,877697.84,987748.59,1011086.39,1057194.762,480000,1.83196044345238,1
495,1,"C","Base",115.7,13,11,25.66923,-100.23264,"Hogar Reunión","UT_TRAFICO_VEHICULAR","TRAIN","Tamaulipas, Vivienda Popular, Guadalupe, Nuevo León, 67160, México",67160,"Nuevo León",494,202301,202412,165395,934304.98,732556.64952381,157614.346387889,-2.34617898604877,8.21161521636871,253463.344,638718.48,684155.5,729359.57,826446.13,871364.22,927044.514,480000,1.52615968650794,1
503,1,"C","Hogar",81.59,11,8,25.67292,-100.25155,"Hogar Reunión","UT_DENSIDAD","TRAIN","Marte, Guadalupe, Nuevo León, 67176, México",67176,"Nuevo León",502,202301,202412,495222.12,1230602.27,1007551.02428571,172552.13405362,-1.44750117874364,2.86712815467542,539544.834,826731.25,923442.66,1040234.79,1099021.68,1203304.18,1225582.314,490000,2.05622658017493,1
348,1,"C","Hogar",100,10,11,25.69414,-100.1901,"Hogar Reunión","UT_DENSIDAD","TRAIN","Oxxo, Avenida Principal, Nuevo San Miguel, Guadalupe, Nuevo León, 67116, México",67116,"Nuevo León",347,202301,202412,564238.72,1815058.13,1410409.68095238,268903.922951551,-1.36231521752472,3.87323045553554,684436.256,1224427.76,1283316.3,1373667.56,1594134.04,1674092.72,1802920.042,490000,2.87838710398445,1
506,1,"C","Hogar",105.66,13,8,25.70051,-100.18745,"Hogar Reunión","UT_DENSIDAD","TRAIN","Avenida Jardines del Río, Jardines del Río, Guadalupe, Nuevo León, 67116, México",67116,"Nuevo León",505,202301,202412,343113.19,1281349.79,922011.308095238,199103.488566551,-0.91053380196248,2.59954677276089,414376.428,755630.35,820058.57,936983.29,1024974.84,1124750.65,1265016.292,490000,1.88165573080661,1
401,1,"C","Hogar",92.52,12,9,25.71205,-100.16304,"Hogar Reunión","UT_TRAFICO_VEHICULAR","TRAIN","Carretera San Miguel, Apodaca, Nuevo León, 66647, México",66647,"Nuevo León",400,202301,202412,113613.67,1369336.19,995425.57952381,334392.848332908,-1.91933348011399,3.3302178177618,114509.346,582078.66,993527.07,1074383.08,1182746.67,1270304.36,1355826.612,490000,2.03148077453839,1
389,1,"BC","Base",98.08,12,9,25.74648,-100.19411,"Hogar Reunión","UT_GAS_URBANA","TRAIN","Oxxo, Hacienda San Javier, Apodaca, Nuevo León, 66634, México",66634,"Nuevo León",388,202301,202412,703458.72,1723180.09,1368920.99571429,235751.021239744,-1.02505312704749,1.99098159766777,767283.068,1132318,1250678.49,1397941.57,1516687.73,1639719.83,1719256.542,480000,2.85191874107143,1
402,1,"C","Hogar",103.27,13,9,25.72369,-100.16661,"Hogar Reunión","UT_TRAFICO_VEHICULAR","TRAIN","Avenida El Campanario, El Campanario, Apodaca, Nuevo León, 66648, México",66648,"Nuevo León",401,202301,202412,304190.93,1307237.69,918442.995238095,303929.543914942,-0.74519527865371,-0.309657346144839,308058.018,500061.07,759267.18,995338.26,1108754.09,1263296.56,1305460.576,490000,1.87437345966958,1
404,1,"C","Base",112.87,13,9,25.67993,-100.25752,"Oficinistas","UT_DENSIDAD","TRAIN","Calle Mier y Noriega, Centro, Guadalupe, Nuevo León, 64590, México",64590,"Nuevo León",403,202301,202412,612022.96,1485796.5,1173307.43190476,185260.487199614,-1.20388395100053,3.17401775195325,685743.612,989592.41,1112691.83,1184361.1,1335380.86,1352381.9,1461632.332,480000,2.44439048313492,1
406,1,"C","Hogar",76.69,10,5,25.6645,-100.26545,"Clásico","UT_DENSIDAD","TRAIN","La Herradura, Guadalupe, Nuevo León, 67140, México",67140,"Nuevo León",405,202301,202412,11711.89,1206294.04,882119.736190476,286606.21510392,-1.99233824639357,3.77481308697747,80491.148,390514.51,853878.46,979256.2,1031809.79,1066028.97,1187637.584,490000,1.8002443595724,1
407,1,"C","Base",118.47,13,7,25.73733,-100.20671,"Oficinistas","UT_GAS_URBANA","TRAIN","Oxxo, Avenida Miguel Alemán, Apodaca, Nuevo León, 66478, México",66478,"Nuevo León",406,202301,202412,174.73,1221534.99,819077.0405,299118.748331544,-1.53342316448524,2.46823566151442,36225.178,441279.475,790598.285,854657.975,1040670.265,1067341.533,1193122.6332,480000,1.70641050104167,1
409,1,"C","Hogar",95.68,13,7,25.66723,-100.22505,"Hogar Reunión","UT_TRAFICO_VEHICULAR","TRAIN","Oxxo, Avenida Pablo Livas, Camino Real, Guadalupe, Nuevo León, 67160, México",67160,"Nuevo León",408,202301,202412,277358.82,1061553.57,716089.200476191,170568.577532315,-0.554109903952582,1.2131637828548,321364,511546.1,648470.65,725536.18,817403.31,883416.27,1026483.242,490000,1.46140653158406,1
411,1,"C","Hogar",109.85,13,9,25.70931,-100.1846,"Hogar Reunión","UT_TRAFICO_VEHICULAR","TRAIN","Oxxo, Avenida Adolfo Ruíz Cortines, Guadalupe, Nuevo León, 67112, México",67112,"Nuevo León",410,202301,202412,350721.94,992714.56,776675.23,145430.82908259,-1.31964592190462,2.60004379477902,391907.182,596417.47,738169.39,811683.2,862292.99,937127.06,983421.122,490000,1.58505148979592,1
417,1,"C","Base",95.22,12,8,25.66245,-100.23941,"Hogar Reunión","UT_TRAFICO_VEHICULAR","TRAIN","2309, Avenida Profesor Eloy Cavazos, Las Villas, Guadalupe, Nuevo León, 67160, México",67160,"Nuevo León",416,202301,202412,398744.15,1132327.75,853535.392380952,158364.616509816,-0.883076220734576,2.63865247754617,445916.986,716096.68,786577.25,882022.04,936693.34,962422.59,1130106.88,480000,1.77819873412698,1
423,1,"C","Base",85.18,12,6,25.6728,-100.23769,"Hogar Reunión","UT_TRAFICO_VEHICULAR","TRAIN","Oxxo, Avenida Las Torres, Tolteca, Guadalupe, Nuevo León, 67160, México",67160,"Nuevo León",422,202301,202412,17981.7,1274439.75,988610.867619048,304280.21172115,-2.08529657821642,4.59962066440816,113272.4,494487.62,972812.86,1056043.01,1164336.3,1218537.98,1271862.018,480000,2.05960597420635,1
635,1,"C","Base",120.27,14,0,25.6638,-100.25769,"Hogar Reunión","UT_TRAFICO_VEHICULAR","TRAIN","1250, Avenida Puesta del Sol, Puesta del Sol, Guadalupe, Nuevo León, 67174, México",67174,"Nuevo León",634,202301,202412,294130.64,1400226.67,1039661.16666667,257234.151165913,-1.32448081883664,2.79671569485054,345046.778,907277.85,930544.99,1075276.81,1231843.27,1328803.32,1394784.68,480000,2.16596076388889,1
425,1,"C","Hogar",116.15,13,7,25.73241,-100.17578,"Hogar Reunión","UT_DENSIDAD","TRAIN","Oxxo, Selene, San Miguel 3°, Apodaca, Nuevo León, 66648, México",66648,"Nuevo León",424,202301,202412,871093.6,2191681.4,1645897.9752381,295978.78176051,-0.663398972262257,1.32930715967582,940220.914,1298549.56,1533743.97,1642456.61,1800423.55,1984298.65,2165202.532,490000,3.35897545966958,1
427,1,"C","Hogar",122.63,13,9,25.73371,-100.18386,"Hogar Reunión","UT_DENSIDAD","TRAIN","Oxxo, Manuel Gonzáles Caballero, Deportivo Huinalá, Apodaca, Nuevo León, 66634, México",66634,"Nuevo León",426,202301,202412,513350.08,1192455.4,1018937.29714286,154882.999156835,-2.17172357003099,5.44995050084847,552950.69,909508.1,989277.37,1067545.12,1104318.92,1146024.76,1185493.228,490000,2.07946387172012,1
431,1,"C","Hogar",119.24,13,8,25.66744,-100.2239,"Hogar Reunión","UT_DENSIDAD","TRAIN","Camino Real, Guadalupe Chavez, Guadalupe, Nuevo León, 67180, México",67180,"Nuevo León",430,202301,202412,450296.44,1250991.02,965965.405238095,158303.090658819,-1.32692399749579,5.2727297591436,531211.352,887135.06,923461.11,952370.09,1008846.45,1141857.36,1238692.784,490000,1.97135796987366,1
433,1,"C","Base",127.4,13,10,25.70933,-100.23586,"Hogar Reunión","UT_DENSIDAD","TRAIN","1010, Avenida Uno, Central de Carga, Guadalupe, Nuevo León, 66494, México",66494,"Nuevo León",432,202301,202412,350512.09,981972.71,791452.282380952,125894.212938537,-2.13189365193473,7.21070646446882,416987.346,695227.25,752857.73,801597.04,864696.91,885908.89,968119.942,480000,1.64885892162698,1
438,1,"C","Hogar",117.61,13,7,25.69605,-100.21036,"Hogar Reunión","UT_DENSIDAD","TRAIN","4036, Calle Andrés Quintana Roo, Nuevo San Rafael, Guadalupe, Nuevo León, 67118, México",67118,"Nuevo León",437,202301,202412,503708.26,1311440.73,985841.954285714,200800.625188186,-0.828479686047132,0.868697996289634,527738.27,663674.02,940888.08,1021551.14,1092735.61,1121135.53,1309855.804,490000,2.01192235568513,1
374,1,"C","Base",107.92,13,11,25.72258,-100.14044,"Hogar Reunión","UT_CARRETERA_GAS","TRAIN","Oxxo, Antiguo Camino Huinala-Villa Juárez, Campestre Huinalá, Apodaca, Nuevo León, 66647, México",66647,"Nuevo León",373,202301,202412,790079.82,2156222.1,1772004.60047619,326415.007281699,-1.24094544887955,2.7297042997245,923237.242,1465492.47,1591369.55,1777761,2085067.09,2135838.85,2153172.092,480000,3.69167625099206,1
439,1,"C","Hogar",115.55,13,0,25.71549,-100.20702,"Hogar Reunión","UT_DENSIDAD","TRAIN","OXXO fortín, Alejandria, Pedregal de Linda Vista, Guadalupe, Nuevo León, 67112, México",67112,"Nuevo León",438,202301,202412,557036.98,1321107.43,1113822.64095238,151055.082261086,-2.54210974558904,9.35162743863311,643616.212,1040641.95,1074952.41,1121280.24,1196396.32,1240006.2,1306938.534,490000,2.27310743051506,1
372,1,"CD","Hogar",80.56,12,11,25.65999,-100.23217,"Hogar Reunión","UT_TRAFICO_VEHICULAR","TRAIN","Oxxo, 15 de Mayo, Guadalupe, Nuevo León, 67170, México",67170,"Nuevo León",371,202301,202412,577891.3,1981635.91,1511263.17428571,279695.363013336,-1.72291839971675,5.66738174487032,711624.514,1280755.17,1418498.95,1512646.37,1668813.08,1743306.1,1945002.872,490000,3.08421055976676,1
441,1,"CD","Hogar",111.48,13,8,25.72353,-100.17124,"Hogar Reunión","UT_DENSIDAD","TRAIN","Cobre, Rincón de San Miguel, Apodaca, Nuevo León, 66648, México",66648,"Nuevo León",440,202301,202412,104047.89,1173282.78,828993.227142857,292672.523730204,-1.30007881913167,1.12895259346544,134518.03,295712.86,727405.07,923750.4,1034892.65,1115022.67,1161884.424,490000,1.69182291253644,1
446,1,"C","Hogar",126.8,13,9,25.68774,-100.18129,"Hogar Reunión","UT_DENSIDAD","TRAIN","Avenida General Plutarco Elías Calles, Guadalupe, Nuevo León, 67116, México",67116,"Nuevo León",445,202301,202412,601597.74,1622624.96,1149582.7447619,272609.740598693,-0.595655017939885,-0.374226197232812,611519.772,778973.34,982714.09,1217352.07,1351510.69,1376175.77,1579393.736,490000,2.34608723420797,1
612,1,"C","Hogar",101.06,12,0,25.74353,-100.17685,"Hogar Reunión","UT_DENSIDAD","TRAIN","Encino, Encinos Residencial, Apodaca, Nuevo León, 66645, México",66645,"Nuevo León",611,202301,202412,473209.5,1704382.95,1298339.69047619,300994.791405244,-1.31251176084675,1.8345403240454,525726.44,882345.83,1237004.36,1347197.48,1517345.91,1563285.79,1688229.366,490000,2.64967283770651,1
587,1,"C","Hogar",91.25,13,0,25.72789,-100.1931,"Hogar Reunión","UT_DENSIDAD","TRAIN","Calle México, Eduardo Caballero, Guadalupe, Nuevo León, 66634, México",66634,"Nuevo León",586,202301,202412,308517.4,1071369.15,770947.69,238494.878417931,-0.828809804732975,-0.782826780364192,315748.616,403704.18,551679.3,887481.71,951041.78,974709.11,1053312.148,490000,1.57336263265306,1
346,1,"C","Hogar",90,10,4,25.74205,-100.19846,"Hogar Reunión","UT_DENSIDAD","TRAIN","Oxxo, Cerrada Coapexco, Valle de Huinala II, Apodaca, Nuevo León, 66634, México",66634,"Nuevo León",345,202301,202412,154920.85,2077325.17,1382449.31428571,490023.394743717,-1.4860254292848,2.1761944603329,160113.288,776796.63,1264641.18,1542467.86,1648583.08,1820016.07,2034152.342,490000,2.82132513119534,1
322,1,"C","Base",100,10,9,25.65836,-100.22371,"Hogar Reunión","UT_DENSIDAD","TRAIN","Avenida Profesor Eloy Cavazos, Rafael Ramirez, Guadalupe, Nuevo León, 67182, México",67182,"Nuevo León",321,202301,202412,336037.45,1094093.5,796464.078571429,138963.178324255,-1.39953333950555,6.18925276998113,410793.106,711951.62,739448.73,791015.9,865038.69,913657.74,1060107.858,480000,1.65930016369048,1
321,1,"C","Hogar",102,10,9,25.70853,-100.15266,"Hogar Reunión","UT_DENSIDAD","TRAIN","Avenida Orquídea, Hacienda Las Margaritas, Apodaca, Nuevo León, 66647, México",66647,"Nuevo León",320,202301,202412,192454.71,1309378.65,864469.113809524,256265.466332656,-0.779579635005023,1.04912344006984,252932.25,552481.01,729963.39,914280.98,1043854.07,1130486.93,1274451.942,490000,1.76422268124393,1
591,1,"C","Hogar",86.41,13,0,25.65561,-100.22113,"Hogar Reunión","UT_DENSIDAD","TRAIN","Cerro de la Silla, Almaguer, Guadalupe, Nuevo León, 67182, México",67182,"Nuevo León",590,202301,202412,702184.45,1815383.68,1464879.44,251279.345537446,-1.23372534693533,3.11799063505366,798710.688,1220895.82,1346146.6,1449663.29,1631211.59,1766536.78,1814208.764,490000,2.98954987755102,1
302,1,"CD","Base",130,13,13,25.67635,-100.26692,"Hogar Reunión","UT_TRAFICO_PEATONAL","TRAIN","Calle Guadalupe, Centro, Guadalupe, Nuevo León, 64590, México",64590,"Nuevo León",301,202301,202412,670636.51,1721697.94,1262184.2247619,211793.352298445,-0.693462123585411,2.51368194887019,737579.362,1045723.68,1134570.92,1308139.87,1379725.71,1461248.87,1671150.98,480000,2.62955046825397,1
633,1,"C","Hogar",103.05,12,0,25.72512,-100.18482,"Hogar Reunión","UT_DENSIDAD","TRAIN","Miguel Auza, Cañada Blanca, Guadalupe, Nuevo León, 67112, México",67112,"Nuevo León",632,202301,202412,238813.77,1425410.64,940317.141428571,331399.571701084,-0.461463134060975,-0.661062891551318,281485.844,492851.85,743237.19,968933.59,1213166.15,1341341.2,1412052.812,490000,1.91901457434402,1
616,1,"C","Hogar",96.93,12,0,25.70758,-100.16037,"Hogar Reunión","UT_DENSIDAD","TRAIN","Avenida Orquídea, Los Pinceles, Apodaca, Nuevo León, 66647, México",66647,"Nuevo León",615,202301,202412,279317.33,954904.53,703449.272380952,144206.918451378,-1.23763004130128,2.77639347830936,323235.024,528133.29,665468.33,732559.73,779248.4,831285.08,931402.622,490000,1.43561075996113,1
306,1,"C","Base",182,13,4,25.67946,-100.2584,"Oficinistas","UT_DENSIDAD","TRAIN","Oxxo, General Ignacio Zaragoza, Centro, Guadalupe, Nuevo León, 64590, México",64590,"Nuevo León",305,202301,202412,340194.79,978289.5,800833.497619048,131444.792944249,-2.0980992354219,7.18765660763288,409500.404,716988.67,766646.27,802992.94,879692.93,925603.06,969659.914,480000,1.66840312003968,1
307,1,"C","Hogar",114,13,9,25.66859,-100.26665,"Hogar Reunión","UT_DENSIDAD","TRAIN","1000, Calle Cuauhtémoc, Polanco, Guadalupe, Nuevo León, 64590, México",64590,"Nuevo León",306,202301,202412,577043.62,1527245.25,1212867.55,196652.23093339,-1.62481194458219,4.6540173374179,658167.578,1060081.55,1147703.66,1245201.29,1355671.67,1374522.76,1499201.822,490000,2.47523989795918,1
593,1,"C","Hogar",111.14,13,0,25.74583,-100.16589,"Hogar Reunión","UT_DENSIDAD","TRAIN","Boulevard Padre Mier, Centro de Huinalá, Apodaca, Nuevo León, 66645, México",66645,"Nuevo León",592,202301,202412,439284.4,1089203.69,855578.34952381,148493.354423035,-0.804939637656132,1.83335872003295,486192.472,727096.23,794611.23,849256.98,944295.76,1033521.21,1084288.588,490000,1.74607826433431,1
509,1,"C","Base",115.72,13,7,25.66655,-100.21398,"Hogar Reunión","UT_TRAFICO_VEHICULAR","TRAIN","Gullermo Prieto, Guadalupe Victoria, Guadalupe, Nuevo León, 67180, México",67180,"Nuevo León",508,202301,202412,299288.59,936656.08,701062.739047619,139744.004245895,-0.734947315628946,2.41950387992468,351501.216,607751.08,637164.03,691565.39,770760.09,874079.53,931212.832,480000,1.46054737301587,1
611,1,"C","Base",115.66,13,0,25.68666,-100.23036,"Barrio Competido","UT_DENSIDAD","TRAIN","Fuerte Guadalupe, Ignacio Zaragoza, Guadalupe, Nuevo León, 67150, México",67150,"Nuevo León",610,202301,202412,622874.67,1552592.03,1211470.40571429,220923.710294612,-0.905336123525504,1.05071668158913,677379.102,967705.98,1067077.19,1243197.79,1394731.38,1422222.87,1537791.38,480000,2.52389667857143,1
318,1,"C","Hogar",107,10,8,25.74066,-100.16799,"Hogar Reunión","UT_DENSIDAD","TRAIN","Oxxo, Avenida los Prados, Apodaca, Nuevo León, 66645, México",66645,"Nuevo León",317,202301,202412,479884.58,1488407.91,1011376,268942.238574194,-0.320699887126181,-0.479331535023246,502914.756,625242.19,826569.29,1053555.61,1182870.05,1240716.99,1475132.896,490000,2.06403265306122,1
317,1,"C","Hogar",104,13,11,25.66909,-100.26294,"Hogar Reunión","UT_DENSIDAD","TRAIN","Insurgentes, Polanco, Guadalupe, Nuevo León, 67174, México",67174,"Nuevo León",316,202301,202412,630233.56,1643660.66,1257902.51571429,220260.766656673,-1.02063820231098,2.18639591504646,699223.06,983804.95,1178594.58,1286124.24,1410488.29,1470419.15,1614205.692,490000,2.56714799125364,1
594,1,"C","Hogar",98.07,13,0,25.72671,-100.17316,"Hogar Reunión","UT_DENSIDAD","TRAIN","Oxxo, Avenida del Teléfono, Apodaca, Nuevo León, 66648, México",66648,"Nuevo León",593,202301,202412,408899.32,1284158.9,907303.062857143,222808.738635605,-0.685216377208086,0.33309726843083,428802.634,528831.61,835745.2,901963.09,1054436.85,1149155.48,1260821.85,490000,1.85163890379009,1
315,1,"BC","Hogar",93,10,7,25.65235,-100.26606,"Clásico","UT_DENSIDAD","TRAIN","106, Calle Valle de Champagne, Valle del Contry, Guadalupe, Nuevo León, 67140, México",67140,"Nuevo León",314,202301,202412,516602.12,1360201.11,1128428.30380952,176856.171775527,-2.04709286644886,6.70352095614771,609125.938,979585.6,1091419.69,1152737.16,1226149.75,1308748.6,1351854.212,490000,2.30291490573372,1
314,1,"C","Base",107,13,13,25.67509,-100.26958,"Hogar Reunión","UT_DENSIDAD","TRAIN","200, Calle Triunfo De La República, Paraiso, Guadalupe, Nuevo León, 64590, México",64590,"Nuevo León",313,202301,202412,577735.63,1579687.38,1260591.9147619,198532.805980569,-1.95597267331327,6.60670282044831,676249.572,1130110.61,1188924.09,1294388.86,1392816.11,1429889.95,1551055.3,480000,2.62623315575397,1
597,1,"C","Hogar",110.73,14,0,25.6714,-100.21653,"Hogar Reunión","UT_DENSIDAD","TRAIN","Avenida Mármol, Parques de Guadalupe, Guadalupe, Nuevo León, 67180, México",67180,"Nuevo León",596,202301,202412,466168.14,1364842.3,1087256.0147619,189742.06278226,-1.57890623537591,4.98847049119063,560580.148,940061.93,1006694.08,1111041.6,1187022.71,1278625.46,1360218.772,490000,2.2188898260447,1
598,1,"C","Hogar",96.69,12,0,25.68012,-100.22238,"Hogar Reunión","UT_DENSIDAD","TRAIN","Fontana, Riberas del Río, Guadalupe, Nuevo León, 67150, México",67150,"Nuevo León",597,202301,202412,130814.29,1740212.78,1195773.25666667,349065.236115332,-1.53804465707448,3.55167962299568,233804.52,742987.55,1162523.43,1269643.99,1346842.98,1441804.88,1715443.416,490000,2.44035358503401,1
599,1,"C","Hogar",114.63,13,6,25.67213,-100.23018,"Hogar Reunión","UT_DENSIDAD","TRAIN","Oxxo, 15 de Mayo, Guadalupe, Nuevo León, 67160, México",67160,"Nuevo León",598,202301,202412,501615.23,1325320.92,945328.251904762,192920.987851394,-0.400966061851257,0.278305352693749,535423.208,674566.2,827988.92,939067.92,1063932.93,1148793.61,1294089.002,490000,1.92924133041788,1
585,1,"C","Hogar",112.9,12,0,25.66144,-100.21849,"Hogar Reunión","UT_DENSIDAD","TRAIN","Avenida Mármol, Luis Mora, Guadalupe, Nuevo León, 67180, México",67180,"Nuevo León",584,202301,202412,276072.82,749662.31,568689.496666667,131740.283745326,-0.935024321580431,0.155135656647552,284807.964,349862.89,524486.6,603438.33,653083.44,689164.26,747337.536,490000,1.16059080952381,1
519,1,"C","Base",115.03,13,6,25.68449,-100.2262,"Hogar Reunión","UT_TRAFICO_VEHICULAR","TRAIN","3018, Avenida General Plutarco Elías Calles, Riberas del Río, Guadalupe, Nuevo León, 67150, México",67150,"Nuevo León",518,202301,202412,435580.72,1261006.66,936432.131904762,177299.451571332,-0.604948622875417,2.41683079362531,500870.424,773000.2,861137.69,931778.76,1013834.65,1138468.22,1254956.34,480000,1.95090027480159,1
536,1,"C","Hogar",114.87,13,10,25.6581,-100.22496,"Hogar Reunión","UT_DENSIDAD","TRAIN","Arboledas de la Silla, Guadalupe, Nuevo León, 67182, México",67182,"Nuevo León",535,202301,202412,368251.2,1196344.23,897887.147619048,167248.72838004,-1.36165381244351,4.30398153394212,439758.718,770595.47,810821.62,913241.03,1007168.07,1042979.19,1175258.21,490000,1.83242275024295,1
541,1,"C","Hogar",109.97,13,7,25.70214,-100.25043,"Hogar Reunión","UT_DENSIDAD","TRAIN","Avenida Anáhuac, Hercules, Guadalupe, Nuevo León, 67138, México",67138,"Nuevo León",540,202301,202412,570332.58,1477285.86,1226188.1552381,187110.867105723,-2.10986569307761,7.34343259995491,658637.85,1135040.18,1178940.55,1241316.89,1298765.61,1406218.1,1476835.816,490000,2.50242480660836,1
557,1,"C","Hogar",84.08,12,4,25.6704,-100.21162,"Hogar Reunión","UT_DENSIDAD","TRAIN","Emiliano Zapata, Jardines de Santa Clara, Guadalupe, Nuevo León, 67180, México",67180,"Nuevo León",556,202301,202412,663757.08,1785207.01,1391332.36333333,223551.348767873,-1.59068429426529,4.99828497215428,764142.252,1191363.8,1327776.97,1371318.97,1513854.08,1583769.32,1747041.05,490000,2.83945380272109,1
559,1,"C","Hogar",92.18,13,8,25.72444,-100.15672,"Hogar Reunión","UT_DENSIDAD","TRAIN","Oxxo, Camino a Charco Blanco, Bosque Boreal, Apodaca, Nuevo León, 66648, México",66648,"Nuevo León",558,202301,202412,616071.03,1560182.4,1147226.94190476,270488.174688486,-0.263924689738992,-1.0360675796161,642646.676,854187.52,887697.89,1158947.38,1353302.38,1456835.55,1546399.646,490000,2.34127947327502,1
562,1,"C","Hogar",104.62,13,0,25.69635,-100.20652,"Hogar Reunión","UT_DENSIDAD","TRAIN","20 de Noviembre, Emiliano Zapata Fomerrey 18, Guadalupe, Nuevo León, 67118, México",67118,"Nuevo León",561,202301,202412,175298.75,1090895.06,584733.870952381,243335.702114791,0.416864388413588,-0.227556391141917,195517.856,302840.49,398094.93,588062.28,750973.58,895746.71,1079689.992,490000,1.19333443051506,1
564,1,"C","Hogar",115.51,13,0,25.68658,-100.21385,"Hogar Reunión","UT_TRAFICO_VEHICULAR","TRAIN","12 de Octubre, 21 de Enero, Guadalupe, Nuevo León, 67118, México",67118,"Nuevo León",563,202301,202412,519772.39,1451693.23,1097190.18666667,177890.847716879,-1.4379703560834,5.24110840851954,602232.33,962409,1019980.81,1136141.73,1191925.55,1226723.06,1413145.676,490000,2.2391636462585,1
571,1,"C","Hogar",112.89,13,0,25.74155,-100.18463,"Hogar Reunión","UT_DENSIDAD","TRAIN","Oxxo, Avenida Héctor Caballero, Corporación Mitsuba de México S.A. de C.V., Apodaca, Nuevo León, 66634, México",66634,"Nuevo León",570,202301,202412,765614.82,1819203.65,1397740.62714286,227921.060857091,-0.71274114586987,1.93650268887978,839557.088,1154501.47,1303869.11,1438596.7,1535981.87,1651916.63,1799136.532,490000,2.85253189212828,1
332,1,"B","Receso",136,13,6,25.69665,-100.14323,"Oficinistas","UT_DENSIDAD","TRAIN","Oxxo, Vía Rápida a Monterrey, Guadalupe, Nuevo León, 66647, México",66647,"Nuevo León",331,202301,202412,458198.39,1197073.44,764151.700952381,199337.962373583,0.247984878352702,-0.39545117489415,459555.788,480603.38,600621.11,743390.27,892067.91,978605.63,1167753.042,516000,1.48091414913252,1
324,1,"C","Hogar",97,13,5,25.69969,-100.21334,"Hogar Reunión","UT_DENSIDAD","TRAIN","Oxxo, Calle Acuamarina, Guadalupe, Nuevo León, 67118, México",67118,"Nuevo León",323,202301,202412,511545.66,1454175.51,1177755.52571429,197458.111079941,-1.85754822564543,5.91404361035063,606112.744,1005002.39,1122188.23,1210371.41,1282146.78,1359770.76,1451735.126,490000,2.40358270553936,1
582,1,"C","Hogar",120.33,11,0,25.69596,-100.18514,"Hogar Reunión","UT_DENSIDAD","TRAIN","502, Raúl Rangel Frías, Guadalupe, Nuevo León, 67116, México",67116,"Nuevo León",581,202301,202412,392945.64,1300708.27,999257.304761905,216040.193211834,-0.869894481785431,1.75347969708987,464605.678,766566.3,912861.87,988375.97,1126544.96,1264722.18,1297209.15,490000,2.03930062196307,1
583,1,"C","Hogar",113.5,13,0,25.66215,-100.22198,"Hogar Reunión","UT_DENSIDAD","TRAIN","Andrés Quintana Roo, Luis Mora, Guadalupe, Nuevo León, 67180, México",67180,"Nuevo León",582,202301,202412,478680.07,1233262.86,928026.835714286,192514.756264272,-1.01633353446608,0.547850083487933,496259.526,640253.26,865540.07,993505.6,1020634.44,1090577.14,1215048.94,490000,1.89393231778426,1
329,1,"C","Receso",71,13,5,25.70334,-100.239,"Oficinistas","UT_GAS_URBANA","TRAIN","Oxxo, Avenida Adolfo Ruíz Cortines, Central de Carga, Guadalupe, Nuevo León, 66494, México",66494,"Nuevo León",328,202301,202412,427716.96,1033760.09,882771.328571429,134991.100513291,-1.95945276248562,5.66926656761941,492968.79,765850.13,829728.16,911744.64,965561.08,1013492.8,1029899.348,516000,1.71079714839424,1
575,1,"C","Hogar",99.73,13,4,25.6737,-100.27038,"Hogar Reunión","UT_DENSIDAD","TRAIN","León, Paraiso, Guadalupe, Nuevo León, 64590, México",64590,"Nuevo León",574,202301,202412,505199.28,1401079.84,1109905.91857143,181292.114937074,-1.8184345346114,5.57893151883193,587220.208,954173.37,1053640.88,1118663.77,1234244.84,1257487.01,1372918.388,490000,2.26511411953353,1
326,1,"B","Hogar",118,12,4,25.7292,-100.17807,"Hogar Reunión","UT_DENSIDAD","TRAIN","Avenida Los Suizos, Zozayita, Apodaca, Nuevo León, 66648, México",66648,"Nuevo León",325,202301,202412,230306.55,1550669.44,1160181.06857143,319009.03796008,-2.16798146293774,4.67641147617994,250366.114,980369.13,1112032.05,1253953.83,1303704.39,1372183.39,1519755.964,490000,2.3677164664723,1
328,1,"C","Receso",116,10,6,25.69583,-100.23188,"Oficinistas","UT_GAS_URBANA","TRAIN","Oxxo, Avenida San Rafael, Guadalupe, Nuevo León, 67138, México",67138,"Nuevo León",327,202301,202412,266202.61,983973.37,717147.168571429,170670.911489733,-0.769214441467659,0.986486313058318,310899.902,542553.27,618594.15,744274.93,851389.76,896474.62,974831.12,516000,1.38982009413068,1
327,1,"C","Hogar",98,10,9,25.67151,-100.25856,"Hogar Reunión","UT_DENSIDAD","TRAIN","625, General Ignacio Zaragoza, La Pastora, Guadalupe, Nuevo León, 67174, México",67174,"Nuevo León",326,202301,202412,571599.75,1736534.13,1336385.6947619,262898.978285669,-1.07412688617473,2.40595023929829,660765.1,1025593.31,1218371.81,1360073.14,1483356.12,1649657.24,1724829.668,490000,2.72731774441205,1
878,2,"C","Hogar",111.7,12,10,26.03851,-98.35729,"Hogar Reunión","UT_DENSIDAD","TRAIN","Avenida Las Lomas, Reynosa, Tamaulipas, 88500, México",88500,"Tamaulipas",874,202301,202412,348432.56,1039293.27,844667.901428571,154299.864481266,-1.639018767513,4.42713210601656,410448.496,699711.26,786423.5,855581.31,913349.34,1015614.39,1037007.554,490000,1.72381204373178,1
856,2,"C","Receso",0,0,0,26.04652,-98.38172,"Parada Técnica","UT_TRAFICO_VEHICULAR","TRAIN","Calle Revolución, Reynosa, Tamaulipas, 88500, México",88500,"Tamaulipas",854,202402,202412,106055.83,938707.12,606308.59,289426.858216319,-0.685482442294912,-0.572056434405716,120989.9268,255396.798,426937.11,669913.17,831566.1125,885300.977,933366.5057,516000,1.17501664728682,1
855,2,"B","Base",0,0,0,26.04971,-98.31442,"Clásico","UT_TRAFICO_VEHICULAR","TRAIN","Calle Ignacio De La Garza, Reynosa, Tamaulipas, 88500, México",88500,"Tamaulipas",853,202403,202412,21793.34,667048.2,470613.547142857,235960.793287083,-1.3579030037446,1.29375164184126,39022.5782,194085.722,376929.855,574500.09,638546.745,652848.864,665628.2664,480000,0.980444889880952,0
854,2,"C","Hogar",0,0,0,26.04082,-98.31979,"Hogar Reunión","UT_DENSIDAD","TRAIN","Miguel hidalgo, Reynosa, Tamaulipas, 88500, México",88500,"Tamaulipas",852,202404,202412,314630.24,722712.57,568700.478333333,195234.706271887,-0.942385380591583,-1.86807862819618,314907.4595,317402.435,410425.5925,682302.995,688416.4575,706396.005,721080.9135,490000,1.16061322108844,1
848,2,"C","Hogar",0,0,0,26.09732,-98.29138,"Hogar Reunión","UT_DENSIDAD","TRAIN","Calle División del Norte, Reynosa, Tamaulipas, 88500, México",88500,"Tamaulipas",846,202403,202412,224785.38,831318.58,623801.315714286,235185.013626317,-1.12092832166613,-0.37542535503856,233274.5892,309677.472,502338.63,761030.32,772398.835,799414.828,828128.2048,490000,1.27306390962099,1
851,2,"C","Hogar",0,0,0,26.06185,-98.32044,"Clásico","UT_DENSIDAD","TRAIN","Calle Fuente de Trevi, Reynosa, Tamaulipas, 88500, México",88500,"Tamaulipas",849,202403,202412,160484.4,634231.95,495093.124285714,195199.419005872,-1.24326980907516,-0.241459275406178,167296.809,228608.49,407438.59,601552.91,627252.715,633412.44,634149.999,490000,1.01039413119534,1
853,2,"C","Hogar",0,0,0,25.97227,-98.29033,"Hogar Reunión","UT_DENSIDAD","TRAIN","Reynosa, Tamaulipas, 88799, México",88799,"Tamaulipas",851,202406,202412,49135.06,1087261.83,666435.3875,491683.986376074,-0.646366223877165,-2.30782320097443,62445.7057,182241.517,381901.2025,764672.33,1049206.515,1072039.704,1085739.6174,490000,1.36007221938776,1
798,2,"C","Hogar",0,0,0,25.99222,-98.09663,"Hogar Reunión","UT_TRAFICO_VEHICULAR","TRAIN","Calle Tlaxcala, Río Bravo, Tamaulipas, 88900, México",88900,"Tamaulipas",796,202301,202412,523344.56,1229881.91,761344.71,163289.323162776,1.07381555962344,2.16655880231158,531058.308,563926.42,673839.71,765362.42,815956.33,940388.83,1179151.094,490000,1.55376471428571,1
802,2,"C","Base",0,0,0,25.9898,-98.1002,"Hogar Reunión","UT_TRAFICO_VEHICULAR","TRAIN","Calle 5 de Mayo, Río Bravo, Tamaulipas, 88950, México",88950,"Tamaulipas",800,202306,202412,5205.61,962363.99,721418.136875,236143.386718751,-2.0175247430524,5.24265638924172,69745.9105,517208.985,675872.3675,766072.92,843622.4175,940324.01,959185.484,480000,1.50295445182292,1
803,2,"C","Base",0,0,0,25.9872,-98.1074,"Oficinistas","UT_TRAFICO_VEHICULAR","TRAIN","Avenida Francisco I. Madero, Río Bravo, Tamaulipas, 88950, México",88950,"Tamaulipas",801,202302,202412,6704.08,690828.51,512876.0345,149581.826518565,-2.13740729388298,6.44547784213137,69775.0949,377569.136,488783.67,538788.69,590165.37,651211.893,686783.9097,480000,1.06849173854167,1
805,2,"C","Hogar",0,0,0,26.0835,-98.33,"Hogar Reunión","UT_DENSIDAD","TRAIN","N. Treviño Zapata, Reynosa, Tamaulipas, 88500, México",88500,"Tamaulipas",803,202301,202412,447940.74,1015570.07,811231.545714286,131100.416145413,-0.938023917018969,1.67280396050388,484671.758,679689.84,745757.59,844893.23,890289.37,921224.4,1013386.586,490000,1.65557458309038,1
806,2,"B","Base",0,0,0,26.069,-98.2719,"Clásico","UT_TRAFICO_VEHICULAR","TRAIN","Calle Veracruz, Reynosa, Tamaulipas, 88500, México",88500,"Tamaulipas",804,202301,202412,442983.94,1127559.28,880930.898095238,199020.735687201,-0.903967344765137,-0.266925047215564,461412.618,596180.44,773145.86,968782.56,1008681.59,1080062.08,1123892.28,480000,1.83527270436508,1
807,2,"B","Hogar",0,0,0,26.07896,-98.33792,"Hogar Reunión","UT_DENSIDAD","TRAIN","Calle Pasito, Reynosa, Tamaulipas, 88500, México",88500,"Tamaulipas",805,202301,202412,719065.51,1515731.97,1099428.09285714,177751.24227698,0.217691159288033,0.753361029621311,750572.578,893730.42,988562.22,1101150.62,1169740.36,1324243.03,1477461.768,490000,2.24373080174927,1
808,2,"C","Base",0,0,0,26.02103,-98.27533,"Hogar Reunión","UT_TRAFICO_VEHICULAR","TRAIN","Calle Margarita Maza de Juárez, Reynosa, Tamaulipas, 88500, México",88500,"Tamaulipas",806,202308,202412,10815,849782.36,591647.155,208356.835736421,-1.69857342156726,4.14898893924784,59731.7991,424527.651,525815.8575,623788.68,728800.44,778523.172,841001.7648,480000,1.23259823958333,1
809,2,"C","Hogar",0,0,0,26.03188,-98.34141,"Hogar Reunión","UT_DENSIDAD","TRAIN","Calle Hacienda del Sol, Reynosa, Tamaulipas, 88500, México",88500,"Tamaulipas",807,202306,202412,13839.14,945871.91,704464.333125,231172.775566518,-1.95272816259793,4.92693073497495,69906.512,518215.18,653223.71,718189.465,833826.6,935092.54,945708.833,490000,1.4376823125,1
839,2,"C","Peatonal",0,0,0,26.08506,-98.27164,"Oficinistas","UT_TRAFICO_PEATONAL","TRAIN","Soriana Super, Calle Cristóbal Colón, Reynosa, Tamaulipas, 88500, México",88500,"Tamaulipas",837,202311,202412,159515.83,1201213.08,797589.533636364,308728.803041489,-0.876705477461607,0.458891364479008,183799.415,402351.68,691711.06,828782.55,1003050.365,1088310.88,1189922.86,420000,1.8990226991342,1
811,2,"B","Hogar",0,0,0,26.0562,-98.3151,"Clásico","UT_DENSIDAD","TRAIN","Calle Sierra Leona, Reynosa, Tamaulipas, 88500, México",88500,"Tamaulipas",809,202301,202412,350531.07,835294.2,662775.568571429,115198.793087597,-1.07953273740772,1.60007239410893,377414.136,486902.84,644446.89,675182.26,734851.88,796053.12,830351.536,490000,1.35260320116618,1
813,2,"C","Hogar",0,0,0,25.992,-98.114,"Hogar Reunión","UT_TRAFICO_VEHICULAR","TRAIN","Calle Álamo, Río Bravo, Tamaulipas, 88950, México",88950,"Tamaulipas",811,202301,202412,569610.74,1187545.33,968466.567619048,160462.635841301,-0.916850018937173,0.353828974498158,597970.55,747550.5,892434.68,1010515.58,1081889.98,1132393.24,1178688.828,490000,1.97646238289602,1
816,2,"B","Hogar",0,0,0,26.09528,-98.28297,"Hogar Reunión","UT_DENSIDAD","TRAIN","Calle Ignacio Allende, Reynosa, Tamaulipas, 88500, México",88500,"Tamaulipas",814,202311,202412,87347.47,662096.47,489021.34,169678.372221745,-1.52647020322302,2.34181541079384,107449.611,288368.88,459534.845,523617.63,611648.03,629106.77,658797.5,490000,0.998002734693878,0
817,2,"C","Receso",0,0,0,26.08866,-98.27988,"Oficinistas","UT_TRAFICO_PEATONAL","TRAIN","Calle Cristóbal Colón, Reynosa, Tamaulipas, 88500, México",88500,"Tamaulipas",815,202306,202412,135812.66,1038306.32,774063.37625,217947.499725972,-2.02341369389321,4.68803296349074,177201.341,573980.865,762551.7575,806256.62,907552.6225,934094.445,1024041.179,516000,1.50012282218992,1
819,2,"C","Base",0,0,0,26.0669,-98.39358,"Hogar Reunión","UT_DENSIDAD","TRAIN","Boulevard Vista Alta, Reynosa, Tamaulipas, 88715, México",88715,"Tamaulipas",817,202311,202412,12372.08,906472.26,634024.876363636,271127.671961643,-1.1642515327135,1.60228113947477,51553.013,404181.41,514837.805,634016.27,868492.125,900203.32,905845.366,480000,1.32088515909091,1
822,2,"C","Base",0,0,0,25.98347,-98.11129,"Hogar Reunión","UT_TRAFICO_VEHICULAR","TRAIN","Avenida José María Morelos y Pavón, Río Bravo, Tamaulipas, 88950, México",88950,"Tamaulipas",820,202307,202412,113311.09,875044.97,663298.275333333,187162.241880747,-1.7940000744727,4.97948499063495,168128.0046,538159.016,608362.955,679923.38,766988.975,856182.074,873002.4876,480000,1.38187140694444,1
835,2,"C","Hogar",0,0,0,26.01647,-98.25479,"Hogar Reunión","UT_DENSIDAD","TRAIN","Calle 5 de Mayo, Reynosa, Tamaulipas, 88500, México",88500,"Tamaulipas",833,202310,202412,179100.5,711071.68,522630.065833333,165459.115600365,-0.90912390586591,0.147489114651535,191272.9702,301579.944,446145.6675,564183.015,648628.4125,684081.133,708114.3542,490000,1.06659197108844,1
999,2,"C","Receso",102.75,11,4,26.02147,-98.28373,"Barrio Competido","UT_TRAFICO_PEATONAL","TRAIN","Calle Héroes de la Reforma, Reynosa, Tamaulipas, 88500, México",88500,"Tamaulipas",995,202301,202412,319981.64,1001872.81,766098.578571429,151161.379485574,-1.22873723418584,2.64239587253483,368844.454,614073.49,716982.13,801033.49,846293.02,919793.87,992556.492,516000,1.48468716777409,1
988,2,"C","Hogar",101.82,12,10,26.03533,-98.29644,"Hogar Reunión","UT_TRAFICO_VEHICULAR","TRAIN","Calle Sonora, Reynosa, Tamaulipas, 88500, México",88500,"Tamaulipas",984,202301,202412,606001.75,1863836.08,1415116.11761905,286558.055008431,-1.24489810759182,2.09393168064048,680672.154,989216.63,1343338.57,1499459.53,1578844.77,1684092.92,1830585.114,490000,2.88799207677357,1
989,2,"C","Hogar",101.82,12,10,26.0434,-98.32001,"Hogar Reunión","UT_DENSIDAD","TRAIN","Calle Ingeniero Américo Villarreal Guerra, Reynosa, Tamaulipas, 88500, México",88500,"Tamaulipas",985,202301,202412,502273.35,1489153.08,1223278.65857143,206494.954566097,-2.191591049007,7.00725919513368,599501,1070302.22,1184704.15,1226961.83,1365266.26,1389697.45,1474367.49,490000,2.49648705830904,1
991,2,"C","Hogar",116.98,13,10,26.01263,-98.24741,"Barrio Competido","UT_GAS_URBANA","TRAIN","Reynosa, Tamaulipas, 88500, México",88500,"Tamaulipas",987,202301,202412,376934.27,1050288.23,836281.882857143,158828.746335327,-1.03933943438109,2.13354025305974,434507.342,690506.01,753899.53,837201.73,948429.12,1041984.3,1049621.69,490000,1.70669772011662,1
992,2,"C","Base",100.41,12,10,26.10101,-98.31804,"Hogar Reunión","UT_GAS_URBANA","TRAIN","Calle Lábaro Patrio, Reynosa, Tamaulipas, 88500, México",88500,"Tamaulipas",988,202301,202412,369059.15,953278.32,730121.675714286,137501.924475251,-0.704326213014947,0.992868594328623,406165.098,566071.34,644953.03,740210.55,820826.2,854936.9,948892.832,480000,1.52108682440476,1
993,2,"B","Hogar",113.73,12,10,26.06883,-98.3598,"Hogar Reunión","UT_DENSIDAD","TRAIN","Oxxo, Avenida del Parque, Reynosa, Tamaulipas, 88500, México",88500,"Tamaulipas",989,202301,202412,490703.81,1376521.74,1141958.89190476,192722.089368545,-1.89999136990878,5.82532804933978,583867.312,996958.9,1049397.68,1155563.39,1238244.13,1344446.88,1372085.18,490000,2.33052835082604,1
994,2,"C","Hogar",113.73,12,7,26.08696,-98.33805,"Hogar Reunión","UT_DENSIDAD","TRAIN","Calle República Checa, Reynosa, Tamaulipas, 88500, México",88500,"Tamaulipas",990,202301,202412,552030.23,1484893.72,1226478.65571429,203212.194678329,-1.98709082847718,5.39883550439515,626670.512,1042799.88,1180684.86,1262726.12,1341860.44,1402340.37,1468881.586,490000,2.50301766472303,1
995,2,"C","Base",106.6,12,10,26.03482,-98.40996,"Hogar Reunión","UT_GAS_URBANA","TRAIN","Calle San Valentín, Fracc. Loma Real, Reynosa, Tamaulipas, 88733, México",88733,"Tamaulipas",991,202301,202412,309258.52,928302.26,719233.922380952,152352.026685188,-0.859780526448281,1.08462472740915,351131.944,540786.04,632469.23,726495.38,851237.9,868656.58,927289.448,480000,1.49840400496032,1
996,2,"C","Hogar",107.85,12,7,25.98884,-98.27356,"Hogar Reunión","UT_DENSIDAD","TRAIN","Privada Trébol, Reynosa, Tamaulipas, 88799, México",88799,"Tamaulipas",992,202301,202412,494130.14,1510573.65,1152785.88809524,231860.855515434,-1.11248371740029,2.02172059376821,562060.772,876446.16,1041375.63,1199539.68,1287749.7,1411499.41,1496279.128,490000,2.35262426141885,1
997,2,"C","Hogar",101.82,12,11,25.99333,-98.27173,"Hogar Reunión","UT_DENSIDAD","TRAIN","Privada Nardo, Reynosa, Tamaulipas, 88799, México",88799,"Tamaulipas",993,202301,202412,703574.98,1896283.61,1588698.93190476,264327.342250305,-1.90443367593456,5.4846774036799,821923.014,1381760.5,1466337.56,1624509.39,1769084.09,1849960.67,1887404.638,490000,3.24224271817298,1
998,2,"AB","Hogar",107.85,12,12,26.07585,-98.26928,"Hogar Reunión","UT_TRAFICO_VEHICULAR","TRAIN","Boulevard Toteco, Reynosa, Tamaulipas, 88500, México",88500,"Tamaulipas",994,202301,202412,447089.22,1251562,1061022.2947619,159784.671337893,-2.94899570325147,11.468741786011,552740.47,985975.48,1029039.9,1077964.91,1148052.19,1187448.11,1243594.186,490000,2.16535162196307,1
987,2,"C","Hogar",110,10,12,26.06031,-98.32753,"Hogar Reunión","UT_DENSIDAD","TRAIN","Avenida Mil Cumbres, Reynosa, Tamaulipas, 88500, México",88500,"Tamaulipas",983,202301,202412,427223.24,1069915.56,770791.873809524,152406.959529748,0.125671935948953,0.535866792126422,459324.094,633754.99,663612.74,755936.27,850003.83,976036.03,1065974.48,490000,1.5730446404276,1
1001,2,"C","Hogar",101.82,12,10,26.01288,-98.26235,"Hogar Reunión","UT_DENSIDAD","TRAIN","Calle José María Morelos, Reynosa, Tamaulipas, 88500, México",88500,"Tamaulipas",997,202301,202412,448332.27,1174105.99,1002521.29333333,160935.038258297,-2.16451759671521,6.42751003458097,520156.61,880374.38,953303.48,1031725.43,1103898.16,1139615.78,1171103.736,490000,2.04596182312925,1
1002,2,"C","Hogar",116.9,10,11,26.0228,-98.28886,"Hogar Reunión","UT_DENSIDAD","TRAIN","Guatemala, Reynosa, Tamaulipas, 88500, México",88500,"Tamaulipas",998,202301,202412,696895.99,2170194.89,1776416.07428571,313993.38466487,-2.08477655291799,6.3927498874576,844778.056,1548430.78,1646384.44,1814244.23,1964311.89,2049393.79,2151975.034,490000,3.6253389271137,1
1003,2,"C","Hogar",112,12,8,25.9956,-98.2471,"Hogar Reunión","UT_DENSIDAD","TRAIN","Calle Segunda, Reynosa, Tamaulipas, 88500, México",88500,"Tamaulipas",999,202301,202412,435579.38,1245298.12,1030240.51571429,169526.586310517,-2.2209209563039,7.18471133686831,520075.09,896683.04,992953.43,1061047.56,1125736.03,1195155.36,1236580.06,490000,2.10253166472303,1
1004,2,"C","Hogar",93.52,12,9,26.09947,-98.32143,"Hogar Reunión","UT_DENSIDAD","TRAIN","Calle Jaime Nunó, Reynosa, Tamaulipas, 88500, México",88500,"Tamaulipas",1000,202301,202412,407140.82,1265777.47,1018777.31,216679.107470187,-1.42196969166609,2.16502764514626,446801.718,800818.04,975159.55,1067709.73,1184334.85,1227457.11,1263995.564,490000,2.07913736734694,1
1005,2,"C","Hogar",98.2,12,5,26.06356,-98.31124,"Hogar Reunión","UT_DENSIDAD","TRAIN","Calle Londres, Reynosa, Tamaulipas, 88500, México",88500,"Tamaulipas",1001,202301,202412,555274.12,1361280.59,1184253.52809524,179169.5091032,-2.34017424368604,7.1827486934912,634624.42,1042096.12,1137995.67,1220249.62,1296308.89,1336310.84,1356784.682,490000,2.41684393488824,1
1006,2,"C","Hogar",116.9,13,14,26.02128,-98.25349,"Hogar Reunión","UT_DENSIDAD","TRAIN","Calle 16 de Septiembre, Reynosa, Tamaulipas, 88500, México",88500,"Tamaulipas",1002,202301,202412,677368.94,1676049.32,1341473.63428571,217196.179772604,-1.32319827939888,3.32758386708675,753226.478,1182362.83,1234838.93,1370242.27,1452193.15,1562031.23,1659657.144,490000,2.73770129446064,1
1007,2,"C","Hogar",114.41,12,10,25.98434,-98.20065,"Hogar Reunión","UT_DENSIDAD","TRAIN","Santa Rosa, Reynosa, Tamaulipas, 88780, México",88780,"Tamaulipas",1003,202301,202412,589799.4,1697934.22,1365351.69285714,211686.424908246,-2.39377997832589,9.24509100776315,719956.634,1247048.54,1344246.5,1372564.27,1459561.56,1534837.61,1677521.756,490000,2.78643202623907,1
1008,2,"C","Hogar",98.8,12,10,26.08637,-98.32248,"Hogar Reunión","UT_DENSIDAD","TRAIN","Calle Francisco Javier Mina, Reynosa, Tamaulipas, 88500, México",88500,"Tamaulipas",1004,202301,202412,714285.83,1981032.5,1739836.27857143,273378.731287517,-2.79390670006636,10.0844856590838,874365.828,1564138.83,1675489.68,1801483.7,1920872.86,1952867.05,1980490.35,490000,3.55068628279883,1
1009,2,"C","Hogar",103.4,12,5,26.0701,-98.30796,"Hogar Reunión","UT_TRAFICO_VEHICULAR","TRAIN","Boulevard del Maestro, Reynosa, Tamaulipas, 88500, México",88500,"Tamaulipas",1005,202301,202412,444235.9,1062952.3,929092.017619048,137424.314809104,-2.3548645191686,7.40531630642801,505491.076,830618.69,917384.52,937138.11,1014107.57,1054514.88,1062275.86,490000,1.89610615840622,1
976,2,"C","Hogar",113,10,10,26.0948,-98.30479,"Hogar Reunión","UT_TRAFICO_VEHICULAR","TRAIN","Reynosa, Tamaulipas, 88500, México",88500,"Tamaulipas",972,202301,202412,364646.9,967672.11,745289.339047619,144594.463361285,-0.966300524983303,1.18240951370266,394438.848,550509.59,679691.43,761685.64,823304.76,887131.16,961356.92,490000,1.52099865111759,1
965,2,"B","Hogar",98,10,10,25.98342,-98.10511,"Hogar Reunión","UT_DENSIDAD","TRAIN","Oxxo, Calle Oriente 4, Río Bravo, Tamaulipas, 88950, México",88950,"Tamaulipas",961,202301,202412,838236.05,1927817.07,1683466.27190476,238523.686042302,-2.36581231983568,7.49571152324051,954452.956,1499486.44,1594965.07,1766881.72,1832811.81,1877590.06,1926039.238,490000,3.43564545286686,1
966,2,"C","Hogar",112,10,10,26.02126,-98.27927,"Hogar Reunión","UT_DENSIDAD","TRAIN","Calle Margarita Maza de Juárez, Reynosa, Tamaulipas, 88500, México",88500,"Tamaulipas",962,202301,202412,724110.82,1869796.34,1535176.09857143,250537.422055418,-1.60743209944231,4.61244817831669,830848.81,1339567.31,1423071.68,1577194.64,1652621.03,1801552.95,1864744.616,490000,3.13301244606414,1
967,2,"C","Hogar",129,10,12,26.00751,-98.24571,"Hogar Reunión","UT_DENSIDAD","TRAIN","Calle Villas de Esmeralda, Reynosa, Tamaulipas, 88500, México",88500,"Tamaulipas",963,202301,202412,574278.89,1538751.72,1121934.21285714,210086.364046402,-0.699917223421443,1.51807994809394,618406.642,859155.15,1015753.99,1181717.34,1210049.74,1307360.07,1510000.148,490000,2.28966165889213,1
968,2,"B","Hogar",129,9,6,26.02023,-98.22689,"Parada Técnica","UT_GAS_URBANA","TRAIN","Calle Cerro de Padilla, Reynosa, Tamaulipas, 88500, México",88500,"Tamaulipas",964,202301,202412,337780.69,997119.7,810643.998571428,155874.729776315,-1.35438657506377,2.96184921127551,396277.74,659306.68,742420.73,829501.56,931638.49,986419.56,996915.84,490000,1.65437550728863,1
969,2,"C","Receso",125,10,13,26.07305,-98.2914,"Clásico","UT_DENSIDAD","TRAIN","Calle Occidental, Reynosa, Tamaulipas, 88500, México",88500,"Tamaulipas",965,202301,202412,408528.31,1069707.36,823534.698571429,128894.561276565,-1.39189759879898,4.97294971893047,465657.212,704872,787859.27,829817.64,886107.59,952792.89,1046404.652,516000,1.59599747785161,1
971,2,"C","Hogar",123,11,12,26.0366,-98.34031,"Hogar Reunión","UT_DENSIDAD","TRAIN","Avenida Punta Calabozo, Reynosa, Tamaulipas, 88500, México",88500,"Tamaulipas",967,202301,202412,419898.76,1134232.94,914006.648095238,200641.769789221,-1.3800449512631,1.66228951203645,422629.858,690819.25,873077.36,932824.02,1070251.58,1094694.82,1133964.08,490000,1.86531968999028,1
972,2,"C","Receso",121,10,10,26.07018,-98.30235,"Hogar Reunión","UT_GAS_URBANA","TRAIN","Calle Loma Bonita, Reynosa, Tamaulipas, 88500, México",88500,"Tamaulipas",968,202301,202412,776901.16,1968735.38,1614537.54571429,235672.843792914,-2.24409102228214,7.83430887004811,893923.166,1509691.7,1549144.07,1658670.36,1753956.41,1781805.6,1944464.316,516000,3.12894873200443,1
973,2,"C","Base",122,10,10,26.04916,-98.38596,"Parada Técnica","UT_GAS_URBANA","TRAIN","Boulevard Miguel Hidalgo y Costilla, Residencial Loma Bonita, Reynosa, Tamaulipas, 88500, México",88500,"Tamaulipas",969,202301,202412,549915.45,1526031.96,1265508.48428571,221960.261077287,-1.68005228785172,4.40214645599576,639541.056,1088356.38,1215744.19,1267591.53,1451897.18,1464075.2,1522535.126,480000,2.63647600892857,1
974,2,"C","Hogar",113,11,12,26.04235,-98.37229,"Hogar Reunión","UT_DENSIDAD","TRAIN","Oxxo, Ebanos Poniente, Reynosa, Tamaulipas, 88500, México",88500,"Tamaulipas",970,202301,202412,597539.53,1587030.17,1141482.70761905,234495.33361827,-0.649914237832002,0.482237713770967,625427.098,832644.43,1089518.05,1200446.79,1272468.79,1354581.08,1551243.874,490000,2.32955654616132,1
975,2,"C","Hogar",129,10,12,26.0282,-98.28279,"Hogar Reunión","UT_DENSIDAD","TRAIN","Calle Héroes de la Reforma, Reynosa, Tamaulipas, 88500, México",88500,"Tamaulipas",971,202302,202412,191783.9,1435170.46,1125476.806,292013.385566812,-2.2413031234756,5.47640638329445,255537.4215,924295.908,1105848.95,1187336.585,1288354.5525,1353042.764,1419649.892,490000,2.29689144081633,1
1011,2,"C","Hogar",112,12,11,26.08553,-98.33515,"Hogar Reunión","UT_GAS_URBANA","TRAIN","Privada San Francisco, Reynosa, Tamaulipas, 88500, México",88500,"Tamaulipas",1007,202301,202412,586565.91,1582490.45,1271701.59190476,234243.974106349,-1.48104693677849,2.5507188567673,644536.146,982443.26,1194516.46,1351744.39,1431083.56,1467922.39,1566447.262,490000,2.59530937123421,1
977,2,"C","Receso",125,10,12,26.03871,-98.28171,"Parada Técnica","UT_GAS_URBANA","TRAIN","Pemex, Carretera Reynosa-Río Bravo (Calle Porfirio Díaz), Reynosa, Tamaulipas, 88500, México",88500,"Tamaulipas",973,202301,202412,682004.93,1859695.62,1553286.3347619,257942.244621578,-1.92070799581657,5.81120039298643,803672.56,1346211.12,1510021.6,1547967.57,1742972.04,1829552.16,1853963.672,516000,3.01024483480989,1
978,2,"BC","Receso",102.98,11,9,26.08548,-98.29332,"Parada Técnica","UT_GAS_URBANA","TRAIN","Calle Río Álamo, Reynosa, Tamaulipas, 88500, México",88500,"Tamaulipas",974,202301,202412,303287.58,836512.49,668619.106666667,123460.933697062,-1.31850646214553,2.6051701884536,340329.86,537998.33,607088.51,671955.64,747088.54,791537.31,829784.278,516000,1.2957734625323,1
979,2,"BC","Hogar",115.67,12,10,25.98337,-98.08285,"Hogar Reunión","UT_GAS_URBANA","TRAIN","Avenida Francisco I. Madero, Río Bravo, Tamaulipas, 88900, México",88900,"Tamaulipas",975,202301,202412,477626.9,1267051.6,1004965.01904762,166159.879118828,-1.70970581709385,4.29557166764859,536350.646,809850.21,968446.58,1048904.17,1081880.69,1139228.81,1243725.826,490000,2.05094901846453,1
981,2,"C","Hogar",121,10,10,26.05409,-98.35069,"Hogar Reunión","UT_DENSIDAD","TRAIN","Israel, Reynosa, Tamaulipas, 88500, México",88500,"Tamaulipas",977,202301,202412,723737.16,2056151.51,1653854.4852381,295898.108329987,-1.67077113548937,3.87220698093391,828288.698,1308505.17,1555754.68,1716664.91,1833537.72,1918523.12,2035183.574,490000,3.37521323517979,1
982,2,"B","Hogar",100,10,6,26.06513,-98.31539,"Hogar Reunión","UT_DENSIDAD","TRAIN","Calle Catorce, Reynosa, Tamaulipas, 88500, México",88500,"Tamaulipas",978,202301,202412,625863.53,1501067.53,1257054.55285714,184305.682154968,-2.06346966807712,6.29860734883962,709483.152,1134021.01,1201469.37,1313575.71,1362630.56,1417326.01,1487386.106,490000,2.5654174548105,1
983,2,"C","Hogar",117,11,12,25.99992,-98.25808,"Hogar Reunión","UT_DENSIDAD","TRAIN","Calle Fresno, Reynosa, Tamaulipas, 88500, México",88500,"Tamaulipas",979,202301,202412,398471.77,1681470.33,1204467.24904762,276692.644523402,-0.967444210109282,2.69435956596353,483290.494,1023644.87,1084308.39,1231557.23,1331713.26,1524364.29,1665943.274,490000,2.45809642662779,1
984,2,"C","Hogar",116,10,8,26.06213,-98.33027,"Hogar Reunión","UT_GAS_URBANA","TRAIN","Calle Central, Reynosa, Tamaulipas, 88500, México",88500,"Tamaulipas",980,202301,202412,615501.63,1639518.93,1312168.93809524,215675.040774457,-1.75289986913195,4.66677771897066,692760.56,1132505.46,1256635.54,1364107.39,1455493.62,1467567.73,1613634.308,490000,2.6778957920311,1
985,2,"C","Hogar",129,11,10,26.02486,-98.24565,"Parada Técnica","UT_DENSIDAD","TRAIN","Calle Doctor Rodríguez, Reynosa, Tamaulipas, 88500, México",88500,"Tamaulipas",981,202301,202412,428300.3,1062802.24,866084.491428571,135966.627800847,-1.57084740381559,4.60869998111876,484477.728,734320.79,818551.36,887232.68,934566.04,1038479.64,1057964.72,490000,1.76751937026239,1
986,2,"C","Hogar",101.82,12,10,26.01805,-98.26513,"Hogar Reunión","UT_DENSIDAD","TRAIN","Calle Adolfo Ruíz Cortines, Reynosa, Tamaulipas, 88500, México",88500,"Tamaulipas",982,202301,202412,452105.38,1217097.84,1006555.84047619,164720.177033804,-1.89668152244244,5.70301191008173,529836.346,864125.51,944574.46,1041079.68,1106727.95,1176604.26,1209605.278,490000,2.05419559280855,1
1046,2,"C","Hogar",0,0,0,26.09036,-98.28066,"Oficinistas","UT_TRAFICO_VEHICULAR","TRAIN","Calle Pedro José Méndez, Reynosa, Tamaulipas, 88500, México",88500,"Tamaulipas",1042,202301,202412,520278.13,1372076.32,1177094.86285714,183193.822612001,-2.45600126616128,8.11262124369439,609783.53,990120.99,1164823.67,1199608.74,1268091.69,1359890.16,1372075.076,490000,2.40223441399417,1
1035,2,"C","Hogar",123.69,0,11,26.01175,-98.28564,"Hogar Reunión","UT_DENSIDAD","TRAIN","Calle Héroes de la Reforma, Reynosa, Tamaulipas, 88500, México",88500,"Tamaulipas",1031,202301,202412,744981.6,1983000.68,1649674.12,249945.369184371,-2.42634101898962,8.48811716349974,886039.326,1452284.74,1610907.72,1648402.29,1771418.92,1858717.4,1965191.46,490000,3.36668187755102,1
1036,2,"C","Hogar",119.65,0,8,26.09085,-98.324,"Hogar Reunión","UT_DENSIDAD","TRAIN","Calle Jaime Nunó, Reynosa, Tamaulipas, 88500, México",88500,"Tamaulipas",1032,202301,202412,890559.79,1978678.46,1673156.30714286,254009.581150418,-1.64919236725027,3.42959532325965,972143.31,1359982.35,1582420.8,1741834.82,1827358.13,1895567.08,1974496.064,490000,3.41460470845481,1
1037,2,"C","Hogar",121.67,0,11,25.96746,-98.25733,"Hogar Reunión","UT_DENSIDAD","TRAIN","Avenida del Parque, Reynosa, Tamaulipas, 88799, México",88799,"Tamaulipas",1033,202301,202412,272955.75,799164.42,646886.866190476,113940.410583953,-1.74089333179306,4.99989466698332,325849.486,538502.12,622263.12,671144.25,696388.78,773575.59,796900.46,490000,1.32017727793975,1
1038,2,"C","Hogar",132.73,0,11,26.05081,-98.40391,"Barrio Competido","UT_DENSIDAD","TRAIN","Avenida Ventura Sur, Fracc. Loma Real, Reynosa, Tamaulipas, 88715, México",88715,"Tamaulipas",1034,202301,202412,165434.71,1169362.52,850170.868571428,259222.275493322,-1.55011601682547,1.85308232285164,199261.032,380761.08,820455.15,937957.22,1019559.74,1061476.03,1150693.696,490000,1.73504258892128,1
1039,2,"BC","Hogar",114.3,0,7,26.05491,-98.31887,"Hogar Reunión","UT_GAS_URBANA","TRAIN","Calle Sierra de San Carlos, Reynosa, Tamaulipas, 88500, México",88500,"Tamaulipas",1035,202301,202412,605233.25,1361088.62,1202061.23333333,164916.01858314,-2.51322440668315,8.37198232557859,693053.424,1058277.57,1159128.99,1235635.48,1325942.73,1333509.45,1357200.438,490000,2.45318619047619,1
1041,2,"B","Hogar",0,0,0,25.98343,-98.09802,"Hogar Reunión","UT_DENSIDAD","TRAIN","Oxxo, Avenida Las Américas, Río Bravo, Tamaulipas, 88900, México",88900,"Tamaulipas",1037,202301,202412,789921.03,2021854.45,1691329.03571429,259904.368146858,-2.10023121629525,6.79159756448197,910611.526,1529314.06,1629026.03,1692701.01,1852729.91,1939445.05,2008405.992,490000,3.45169190962099,1
1042,2,"C","Hogar",0,0,0,25.9756,-98.05814,"Hogar Reunión","UT_TRAFICO_VEHICULAR","TRAIN","Avenida Francisco I. Madero, Río Bravo, Tamaulipas, 88920, México",88920,"Tamaulipas",1038,202301,202412,504114.79,1356279.67,1131374.8147619,194693.763940729,-1.89135302781532,4.51112722102024,571082.444,924868.95,1107632.03,1167645.06,1252605.17,1305635.22,1348085.954,490000,2.30892819339164,1
1043,2,"C","Hogar",0,0,0,26.05884,-98.34364,"Hogar Reunión","UT_TRAFICO_PEATONAL","TRAIN","Calle Sur Uno, Reynosa, Tamaulipas, 88500, México",88500,"Tamaulipas",1039,202301,202412,607480.27,1675853.66,1405606.59,240033.531760852,-2.00007304541897,5.38153542788675,697764.266,1192145.28,1325647.8,1453900.55,1543047.46,1605243.4,1670879.576,490000,2.86858487755102,1
1044,2,"C","Base",0,0,0,25.98861,-98.12478,"Parada Técnica","UT_DENSIDAD","TRAIN","Calle Ignacio Allende, Río Bravo, Tamaulipas, 88950, México",88950,"Tamaulipas",1040,202301,202412,330823.39,819301.44,662650.415238095,97815.7197908486,-1.84021245340175,6.17937547791814,379999.206,583035.14,646020.98,670543.02,717744.6,736319.44,811808.946,480000,1.3805216984127,1
1045,2,"C","Hogar",0,0,0,25.98755,-98.05539,"Hogar Reunión","UT_DENSIDAD","TRAIN","Calle Pedro de Guzmán, Río Bravo, Tamaulipas, 88920, México",88920,"Tamaulipas",1041,202301,202412,560299.69,1215079.57,976980.003333333,150701.414045519,-0.97484931002861,1.63971632323691,598513.718,831130.37,900203.34,985054.78,1064329.87,1150073.77,1202536.162,490000,1.9938367414966,1
1034,2,"B","Hogar",132.73,0,12,26.0852,-98.37643,"Hogar Reunión","UT_DENSIDAD","TRAIN","Avenida de los Colorines Poniente, Villa Florida Sector B, Reynosa, Tamaulipas, 88500, México",88500,"Tamaulipas",1030,202301,202412,639340.41,1758156.48,1376868.62,235886.72268341,-1.39479936593703,4.02934400131613,723274.486,1173138.02,1316017.16,1397034.01,1485428.52,1651994.58,1743414.212,490000,2.80993595918367,1
1047,2,"C","Hogar",0,0,0,26.07928,-98.29009,"Clásico","UT_DENSIDAD","TRAIN","Calle Monterrey, Reynosa, Tamaulipas, 88500, México",88500,"Tamaulipas",1043,202301,202412,586387.54,1606286.01,1281133.2052381,215609.004604029,-1.70137560184038,4.61681834663391,665544.422,1076807.26,1204206.01,1335580.6,1426439.97,1474345.43,1585731.084,490000,2.6145575617104,1
1048,2,"C","Hogar",0,0,0,26.03145,-98.38466,"Hogar Reunión","UT_TRAFICO_VEHICULAR","TRAIN","Calle Kiwi, Reynosa, Tamaulipas, 88500, México",88500,"Tamaulipas",1044,202301,202412,669082.03,2075628.48,1446430.07238095,295138.452135798,-0.508107549742169,1.70714319294923,748216.166,1115812.08,1282392.89,1485613.86,1571279.49,1727682.8,2014583.698,490000,2.9518981068999,1
1049,2,"C","Hogar",0,0,0,26.00607,-98.12218,"Hogar Reunión","UT_DENSIDAD","TRAIN","Calle Satélite, Río Bravo, Tamaulipas, 88950, México",88950,"Tamaulipas",1045,202301,202412,569396.62,1336892.98,1049923.00047619,161300.054609015,-1.06433906722015,2.95500432589109,626061.97,932793.75,972218.72,1036721.72,1161859.42,1217228.71,1315148.766,490000,2.14270000097182,1
1051,2,"C","Hogar",0,0,0,26.03374,-98.29404,"Hogar Reunión","UT_DENSIDAD","TRAIN","Calle Ingeniero Américo Villarreal Guerra, Reynosa, Tamaulipas, 88500, México",88500,"Tamaulipas",1047,202301,202412,548629.83,1410789.24,1132668.75238095,186106.87766341,-1.42285699970991,3.84891276291218,624298.624,980061.89,1032696.46,1164205.39,1248867.21,1329694.4,1399261.562,490000,2.31156888241011,1
1052,2,"B","Base",0,0,0,26.06517,-98.3448,"Parada Técnica","UT_DENSIDAD","TRAIN","Boulevard Miguel Hidalgo y Costilla, Reynosa, Tamaulipas, 88500, México",88500,"Tamaulipas",1048,202301,202412,518993.77,1468389.29,1136733.20285714,205047.529420771,-1.35087389978719,3.00298513380943,590267.206,946039.63,1093866.97,1167677.27,1259744.95,1302213.73,1445699.202,480000,2.36819417261905,1
1053,2,"C","Hogar",0,0,0,26.04132,-98.29259,"Hogar Reunión","UT_DENSIDAD","TRAIN","Calle Nohelia, Reynosa, Tamaulipas, 88500, México",88500,"Tamaulipas",1049,202301,202412,57107.57,1006088.57,766057.13,235523.876872978,-1.81953826881513,3.12887389774768,122112.208,441663.74,766204.45,843454.36,896450.48,961477.07,1000492.912,490000,1.56338189795918,1
1054,2,"C","Hogar",0,0,0,26.09605,-98.29327,"Hogar Reunión","UT_DENSIDAD","TRAIN","Calle Mariano Matamoros, Reynosa, Tamaulipas, 88500, México",88500,"Tamaulipas",1050,202301,202412,568775.18,1921428.67,1561484.89904762,280404.660979276,-2.1762383069675,7.60252734695114,721383.53,1369457.44,1482597.24,1567924.82,1702360.77,1797055.45,1919958.208,490000,3.18670387560739,1
1055,2,"C","Hogar",0,0,0,26.01132,-98.3814,"Hogar Reunión","UT_DENSIDAD","TRAIN","Oxxo, Bulevar Puerta del Sol, Reynosa, Tamaulipas, 88500, México",88500,"Tamaulipas",1051,202301,202412,465697.15,1236925.17,1014392.32,167387.143041795,-1.76469580010695,4.96835565951755,534507.18,855822.95,964615.91,1019052.12,1118569.6,1163870.56,1232476.606,490000,2.07018840816327,1
1056,2,"C","Hogar",0,0,0,26.03571,-98.342,"Hogar Reunión","UT_DENSIDAD","TRAIN","Oxxo, Calle Puerto Vallarta, Reynosa, Tamaulipas, 88500, México",88500,"Tamaulipas",1052,202301,202412,536720.1,1631045.1,1284810.38714286,230943.738015364,-1.63475628371999,4.63323535096234,635036.698,1090290.24,1178939.98,1311964.82,1454479.34,1476933.77,1613155.524,490000,2.62206201457726,1
1023,2,"B","Hogar",121.67,0,10,26.05529,-98.28269,"Hogar Reunión","UT_DENSIDAD","TRAIN","Calle Amado Nervo, Reynosa, Tamaulipas, 88500, México",88500,"Tamaulipas",1019,202301,202412,539758.63,1446509.49,1155603.49142857,184327.156432315,-1.71500408114883,5.67350650330327,630846.016,1005252.11,1083346.91,1168050.54,1232264.13,1358900.88,1431435.354,490000,2.35837447230321,1
1012,2,"C","Hogar",105.2,12,8,26.00514,-98.25797,"Hogar Reunión","UT_GAS_URBANA","TRAIN","Boulevard Villas de Esmeralda, Reynosa, Tamaulipas, 88500, México",88500,"Tamaulipas",1008,202301,202412,306195.98,1310270.77,917489.917619048,225558.3716442,-0.717753851554775,1.5216160917224,373203.524,678792.05,797060.04,946511.32,1047434.55,1192889.87,1295261.068,490000,1.87242840330418,1
1013,2,"C","Hogar",111.04,12,7,26.05979,-98.41287,"Hogar Reunión","UT_DENSIDAD","TRAIN","Oxxo, Calle Egipto, Reynosa, Tamaulipas, 88715, México",88715,"Tamaulipas",1009,202301,202412,406419.72,1784410.33,1361598.44238095,388510.024275044,-1.69792473309342,2.07456110297801,410255.25,680955.32,1305212.37,1487958.14,1587125.3,1654045.96,1764065.584,490000,2.7787723313897,1
1014,2,"C","Hogar",98.8,12,10,26.02676,-98.27125,"Hogar Reunión","UT_DENSIDAD","TRAIN","Calle Guinda, Reynosa, Tamaulipas, 88500, México",88500,"Tamaulipas",1010,202301,202412,618486.49,1786066.13,1504465.25666667,251924.544106934,-2.25240846809637,7.17609119324967,746199.994,1339957.68,1442993.81,1507770.19,1687479.25,1701790.08,1774256.404,490000,3.0703372585034,1
1015,2,"C","Hogar",116.26,13,12,26.02408,-98.39976,"Hogar Reunión","UT_DENSIDAD","TRAIN","Bulevar Campestre Bugambilia, Reynosa, Tamaulipas, 88733, México",88733,"Tamaulipas",1011,202301,202412,402643.73,1078015.46,871987.672857143,150154.839982256,-1.38512714132053,3.85632493915979,464632.24,713429.27,822699.02,884913.24,931485.16,1063480.11,1076723.782,490000,1.77956667930029,1
1016,2,"C","Hogar",116.9,13,13,25.96921,-98.26604,"Barrio Competido","UT_DENSIDAD","TRAIN","Oxxo, Calle Paseo del Sol, Reynosa, Tamaulipas, 88799, México",88799,"Tamaulipas",1012,202301,202412,551276.52,1782378.89,1403580.63761905,253901.584770807,-1.87376485962303,5.7152412779666,664527.18,1228547.57,1289093.67,1475857.4,1529636.43,1627149.7,1760690.228,490000,2.8644502808552,1
1017,2,"BC","Hogar",116.9,13,11,26.04827,-98.31403,"Hogar Reunión","UT_DENSIDAD","TRAIN","Calle José De Escandón Y Helguera, Reynosa, Tamaulipas, 88500, México",88500,"Tamaulipas",1013,202301,202412,509007.62,1609661.15,1309675.94380952,219258.625439532,-2.3987115018457,8.96978238622779,640896.528,1194205.33,1263229.43,1313311.59,1428850.87,1505686.24,1599226.892,490000,2.67280804859086,1
1018,2,"C","Hogar",112,12,10,26.08398,-98.30804,"Hogar Reunión","UT_DENSIDAD","TRAIN","Calle Guadalupe Mainero, Reynosa, Tamaulipas, 88500, México",88500,"Tamaulipas",1014,202301,202412,728060.11,1786219.74,1551907.42809524,224106.167361882,-2.63482571479855,9.10939304109059,849108.482,1389436.18,1514174.96,1602447.33,1678259.99,1739457.56,1777789.774,490000,3.16715801652089,1
1019,2,"C","Hogar",122.8,0,11,26.03387,-98.39449,"Hogar Reunión","UT_DENSIDAD","TRAIN","Oxxo, Avenida Hacienda las Bugambilias, Reynosa, Tamaulipas, 88733, México",88733,"Tamaulipas",1015,202301,202412,657102.78,1669177.36,1373287.3447619,222617.267680751,-1.61689661764069,4.53352335232695,747476.734,1144561,1279713.25,1413004.83,1470176.07,1637341.16,1668716.264,490000,2.80262723420797,1
1021,2,"C","Hogar",0,0,0,25.98395,-98.19187,"Hogar Reunión","UT_DENSIDAD","TRAIN","Granja Reyna, Reynosa, Tamaulipas, 88780, México",88780,"Tamaulipas",1017,202301,202412,397909.37,1360686.65,987870.344761905,191714.361773332,-1.0516700839299,3.90753566236904,478804.526,877466.36,894900.45,989433.4,1097003.08,1192039.58,1333765.796,490000,2.01606192808552,1
