"TIENDA_ID","PLAZA_CVE","NIVELSOCIOECONOMICO_DES","ENTORNO_DES","MTS2VENTAS_NUM","PUERTASREFRIG_NUM","CAJONESESTACIONAMIENTO_NUM","LATITUD_NUM","LONGITUD_NUM","SEGMENTO_MAESTRO_DESC","LID_UBICACION_TIENDA","DATASET","direccion","codigo_postal","estado"
126,1,"BC","Hogar",127.42,13,7,25.69107,-100.21261,"Hogar Reunión","UT_DENSIDAD","TRAIN","Circuito De Las Quintas Sur, Residencial Las Quintas, Guadalupe, Nuevo León, 67118, México","67118","Nuevo León"
681,1,"C","Hogar",128.13,13,0,25.73571,-100.18086,"Hogar Reunión","UT_DENSIDAD","TRAIN","Calle Paseo De La Gloria, Rincón de la Gloria, Apodaca, Nuevo León, 66634, México","66634","Nuevo León"
117,1,"C","Base",87.62,11,11,25.71883,-100.19133,"Hogar Reunión","UT_DENSIDAD","TRAIN","Loma Alta Sur, Lomas de San Miguel, Guadalupe, Nuevo León, 67112, México","67112","Nuevo León"
682,1,"C","Hogar",90.7,13,0,25.66952,-100.20744,"Hogar Reunión","UT_DENSIDAD","TRAIN","Arturo B. de la Garza, La Comedia, Guadalupe, Nuevo León, 67180, México","67180","Nuevo León"
275,1,"C","Hogar",95.3,13,6,25.73766,-100.16116,"Hogar Reunión","UT_DENSIDAD","TRAIN","Oxxo, Gaspar Castaño, Rincón de Huinalá, Apodaca, Nuevo León, 66644, México","66644","Nuevo León"
684,1,"C","Base",116.07,13,0,25.70486,-100.15613,"Oficinistas","UT_GAS_URBANA","TRAIN","Oxxo, Avenida Adolfo Ruiz Cortínes, Apodaca, Nuevo León, 66647, México","66647","Nuevo León"
694,1,"C","Receso",78.48,13,0,25.67955,-100.24328,"Oficinistas","UT_TRAFICO_PEATONAL","TRAIN","Oxxo, Avenida Benito Juárez, Guadalupe, Nuevo León, 67150, México","67150","Nuevo León"
272,1,"C","Hogar",100.58,12,7,25.70058,-100.2018,"Hogar Reunión","UT_DENSIDAD","TRAIN","Oxxo, Misión de Nuestra Señora, Guadalupe, Nuevo León, 67118, México","67118","Nuevo León"
702,1,"C","Hogar",73.24,13,0,25.67344,-100.26084,"Hogar Reunión","UT_DENSIDAD","TRAIN","230, Calle Mariano Matamoros, Centro, Guadalupe, Nuevo León, 67174, México","67174","Nuevo León"
704,1,"C","Base",107.23,13,0,25.68419,-100.22138,"Hogar Reunión","UT_TRAFICO_VEHICULAR","TRAIN","16 de Noviembre, Riberas del Río, Guadalupe, Nuevo León, 67150, México","67150","Nuevo León"
125,1,"BC","Hogar",141.9,10,6,25.69017,-100.25164,"Clásico","UT_TRAFICO_VEHICULAR","TRAIN","Michelin, Avenida Miguel Alemán, Libertad, Guadalupe, Nuevo León, 67138, México","67138","Nuevo León"
279,1,"C","Hogar",104.2,13,12,25.67484,-100.24412,"Hogar Reunión","UT_DENSIDAD","TRAIN","La Hacienda, Guadalupe, Nuevo León, 67150, México","67150","Nuevo León"
127,1,"BC","Hogar",132,12,5,25.66474,-100.20913,"Hogar Reunión","UT_GAS_URBANA","TRAIN","Oxxo, Álamo, Valles de la Silla, Guadalupe, Nuevo León, 67180, México","67180","Nuevo León"
706,1,"C","Hogar",120.87,13,0,25.73785,-100.20217,"Hogar Reunión","UT_DENSIDAD","TRAIN","Oxxo, Calle José Ovalle, Apodaca, Nuevo León, 66634, México","66634","Nuevo León"
129,1,"BC","Base",83.99,13,10,25.6808,-100.24372,"Hogar Reunión","UT_TRAFICO_VEHICULAR","TRAIN","Oxxo, Avenida Azteca, Azteca, Guadalupe, Nuevo León, 67150, México","67150","Nuevo León"
268,1,"C","Base",121.2,13,9,25.69481,-100.23052,"Clásico","UT_GAS_URBANA","TRAIN","Oxxo, Avenida General Lázaro Cárdenas, 18 de Marzo, Guadalupe, Nuevo León, 67138, México","67138","Nuevo León"
131,1,"BC","Hogar",99.65,12,8,25.64911,-100.26649,"Clásico","UT_DENSIDAD","TRAIN","Oxxo, Calle Escritores Mexicanos, Contry Sol, Guadalupe, Nuevo León, 64850, México","64850","Nuevo León"
716,1,"C","Hogar",121.21,13,0,25.7105,-100.21547,"Hogar Reunión","UT_DENSIDAD","TRAIN","De la Hacienda, Paseo de San Miguel, Guadalupe, Nuevo León, 67110, México","67110","Nuevo León"
722,1,"C","Base",118.3,13,0,25.69569,-100.24609,"Oficinistas","UT_TRAFICO_VEHICULAR","TRAIN","Bilbao, Valles de Linda Vista, Guadalupe, Nuevo León, 67138, México","67138","Nuevo León"
726,1,"C","Hogar",113.96,13,0,25.72278,-100.15421,"Hogar Reunión","UT_DENSIDAD","TRAIN","Oxxo, Mondrian, Misión Real, Apodaca, Nuevo León, 66648, México","66648","Nuevo León"
135,1,"BC","Hogar",124.5,12,7,25.69272,-100.25433,"Clásico","UT_DENSIDAD","TRAIN","Oxxo, Avenida Linda Vista, Linda Vista, Guadalupe, Nuevo León, 67138, México","67138","Nuevo León"
663,1,"C","Base",115.76,13,0,25.71882,-100.16863,"Hogar Reunión","UT_TRAFICO_VEHICULAR","TRAIN","Gaspar Castaño, Apodaca, Nuevo León, 66648, México","66648","Nuevo León"
639,1,"C","Hogar",113.85,13,0,25.71143,-100.15224,"Hogar Reunión","UT_DENSIDAD","TRAIN","Calle Hacienda La Escondida, Hacienda Las Margaritas, Apodaca, Nuevo León, 66647, México","66647","Nuevo León"
642,1,"C","Receso",88.39,13,0,25.70438,-100.22197,"Oficinistas","UT_TRAFICO_PEATONAL","TRAIN","José Manuel, Guadalupe, Nuevo León, 67110, México","67110","Nuevo León"
299,1,"C","Hogar",94,10,9,25.68426,-100.21374,"Hogar Reunión","UT_TRAFICO_VEHICULAR","TRAIN","Oxxo, Avenida Adolfo López Mateos, Guadalupe, Nuevo León, 67118, México","67118","Nuevo León"
298,1,"C","Peatonal",103.3,13,5,25.67933,-100.24593,"Oficinistas","UT_TRAFICO_PEATONAL","TRAIN","Avenida Benito Juárez, Guerra, Guadalupe, Nuevo León, 67150, México","67150","Nuevo León"
644,1,"C","Base",105.69,13,0,25.7036,-100.15854,"Hogar Reunión","UT_TRAFICO_PEATONAL","TRAIN","Terminal Valle Soleado, Calle Magallanes, Privadas de San Miguel, Guadalupe, Nuevo León, 66647, México","66647","Nuevo León"
296,1,"C","Hogar",86,13,5,25.66105,-100.25257,"Clásico","UT_GAS_URBANA","TRAIN","Oxxo, Bosques del Valle, Bosques de la Pastora, Guadalupe, Nuevo León, 67176, México","67176","Nuevo León"
652,1,"C","Base",113.23,14,0,25.65635,-100.26234,"Clásico","UT_TRAFICO_VEHICULAR","TRAIN","Alfredo Bernando Nóbel, Contry Sol, Guadalupe, Nuevo León, 67174, México","67174","Nuevo León"
653,1,"C","Hogar",112.09,13,0,25.69885,-100.12075,"Clásico","UT_DENSIDAD","TRAIN","Fatima, Apodaca, Nuevo León, 66670, México","66670","Nuevo León"
292,1,"C","Hogar",114,13,11,25.72188,-100.20232,"Hogar Reunión","UT_GAS_URBANA","TRAIN","Oxxo, Avenida Acapulco, Los Cristales, Guadalupe, Nuevo León, 67112, México","67112","Nuevo León"
291,1,"C","Hogar",108.91,13,10,25.68419,-100.24388,"Hogar Reunión","UT_DENSIDAD","TRAIN","Oxxo, Apache, Azteca, Guadalupe, Nuevo León, 67138, México","67138","Nuevo León"
731,1,"C","Base",117.97,15,0,25.67493,-100.20706,"Hogar Reunión","UT_GAS_URBANA","TRAIN","Aarón Sáenz, Nuevo San Sebastian, Guadalupe, Nuevo León, 67188, México","67188","Nuevo León"
289,1,"C","Hogar",114.04,13,9,25.70314,-100.23122,"Hogar Reunión","UT_GAS_URBANA","TRAIN","Oxxo, Avenida Tauro, La Purisima, Guadalupe, Nuevo León, 67129, México","67129","Nuevo León"
288,1,"D","Base",104,13,11,25.67442,-100.20493,"Hogar Reunión","UT_TRAFICO_VEHICULAR","TRAIN","Avenida San Sebastián, San Sebastián, Guadalupe, Nuevo León, 67188, México","67188","Nuevo León"
667,1,"C","Hogar",122.19,13,0,25.73719,-100.15527,"Hogar Reunión","UT_DENSIDAD","TRAIN","Apodaca, Nuevo León, 66644, México","66644","Nuevo León"
668,1,"C","Hogar",93.08,13,0,25.72812,-100.18563,"Hogar Reunión","UT_DENSIDAD","TRAIN","Oxxo, Calle Concepción del Oro, Cañada Blanca, Guadalupe, Nuevo León, 66634, México","66634","Nuevo León"
285,1,"A","Hogar",130.46,13,7,25.64192,-100.26826,"Clásico","UT_DENSIDAD","TRAIN","Oxxo, Calle Muralistas, Contry La Silla, Monterrey, Guadalupe, Nuevo León, 64850, México","64850","Nuevo León"
671,1,"C","Base",114.21,13,0,25.67863,-100.26725,"Hogar Reunión","UT_TRAFICO_VEHICULAR","TRAIN","202, Calle José María Arteaga, Esmeralda, Guadalupe, Nuevo León, 67140, México","67140","Nuevo León"
674,1,"C","Hogar",114.34,13,0,25.69528,-100.20643,"Hogar Reunión","UT_DENSIDAD","TRAIN","Avenida Circunvalación, Nuevo San Rafael, Guadalupe, Nuevo León, 67118, México","67118","Nuevo León"
281,1,"BC","Hogar",121.54,13,8,25.69659,-100.25507,"Hogar Reunión","UT_DENSIDAD","TRAIN","Vista Boulevard, Linda Vista, Guadalupe, Nuevo León, 67138, México","67138","Nuevo León"
677,1,"C","Hogar",110.81,13,0,25.68325,-100.23067,"Parada Técnica","UT_DENSIDAD","TRAIN","Puebla, Ignacio Zaragoza, Guadalupe, Nuevo León, 67150, México","67150","Nuevo León"
834,1,"C","Hogar",101.33,13,0,25.70647,-100.22508,"Hogar Reunión","UT_DENSIDAD","TRAIN","Tritón, Nueva Linda Vista, Guadalupe, Nuevo León, 67129, México","67129","Nuevo León"
792,1,"C","Peatonal",87.25,0,0,25.67762,-100.25978,"Oficinistas","UT_TRAFICO_PEATONAL","TRAIN","207, Calle Miguel Hidalgo y Costilla, Centro, Guadalupe, Nuevo León, 64590, México","64590","Nuevo León"
164,1,"CD","Base",18.72,12,9,25.73369,-100.19908,"Hogar Reunión","UT_GAS_URBANA","TRAIN","Oxxo, Ignacio Sepúlveda, Apodaca, Nuevo León, 66478, México","66478","Nuevo León"
231,1,"CD","Hogar",116.5,13,9,25.70295,-100.25852,"Hogar Reunión","UT_GAS_URBANA","TRAIN","Oxxo, Adolfo Duclós Salinas, Industria del Hierro, Guadalupe, Nuevo León, 66491, México","66491","Nuevo León"
823,1,"C","Hogar",108.66,0,0,25.66404,-100.23363,"Hogar Reunión","UT_DENSIDAD","TRAIN","San Luis Potosí, Vivienda Popular, Guadalupe, Nuevo León, 67160, México","67160","Nuevo León"
824,1,"C","Hogar",97.92,0,0,25.7371,-100.16613,"Hogar Reunión","UT_DENSIDAD","TRAIN","Desierto de Sonora, Balcones de Huinalá, Apodaca, Nuevo León, 66648, México","66648","Nuevo León"
182,1,"BC","Hogar",111.9,13,5,25.68312,-100.2139,"Hogar Reunión","UT_DENSIDAD","TRAIN","Avenida Adolfo López Mateos, Guadalupe, Nuevo León, 67118, México","67118","Nuevo León"
223,1,"BC","Hogar",128.96,12,9,25.66976,-100.23605,"Hogar Reunión","UT_GAS_URBANA","TRAIN","Avenida Pablo Livas, Las Villas, Guadalupe, Nuevo León, 67160, México","67160","Nuevo León"
828,1,"C","Hogar",0,0,0,25.6678,-100.2209,"Hogar Reunión","UT_DENSIDAD","TRAIN","Amapola, Parques de Guadalupe, Guadalupe, Nuevo León, 67180, México","67180","Nuevo León"
832,1,"C","Hogar",66.04,0,0,25.66925,-100.237,"Hogar Reunión","UT_DENSIDAD","TRAIN","Avenida las Villas, Las Villas, Guadalupe, Nuevo León, 67160, México","67160","Nuevo León"
245,1,"D","Hogar",116,10,8,25.73065,-100.18657,"Hogar Reunión","UT_DENSIDAD","TRAIN","Oxxo, Calle Antiguo Camino a Huinalá, Apodaca, Nuevo León, 66634, México","66634","Nuevo León"
188,1,"BC","Receso",95.3,13,7,25.68763,-100.24615,"Parada Técnica","UT_GAS_URBANA","TRAIN","Oxxo, Avenida Doctor Ignacio Morones Prieto, Guadalupe, Nuevo León, 67138, México","67138","Nuevo León"
191,1,"CD","Receso",131.5,11,0,25.69273,-100.24576,"Clásico","UT_GAS_URBANA","TRAIN","7-Eleven, Avenida Las Américas, Valles de Linda Vista, Guadalupe, Nuevo León, 67138, México","67138","Nuevo León"
847,1,"C","Hogar",100.4,13,0,25.71567,-100.1601,"Hogar Reunión","UT_GAS_URBANA","TRAIN","Hacienda Las Margaritas, Apodaca, Nuevo León, 66647, México","66647","Nuevo León"
193,1,"CD","Hogar",95.54,10,9,25.73871,-100.18913,"Hogar Reunión","UT_DENSIDAD","TRAIN","Oxxo, Avenida Héctor Caballero, Corporación Mitsuba de México S.A. de C.V., Apodaca, Nuevo León, 66634, México","66634","Nuevo León"
212,1,"CD","Base",134.24,12,10,25.69344,-100.1831,"Parada Técnica","UT_CARRETERA_GAS","TRAIN","Oxxo, Boulevard Miguel de la Madrid, Guadalupe, Nuevo León, 67116, México","67116","Nuevo León"
211,1,"C","Hogar",127.62,12,11,25.74447,-100.17476,"Hogar Reunión","UT_DENSIDAD","TRAIN","Comida Coreana, Baja California, Apodaca, Nuevo León, 66645, México","66645","Nuevo León"
199,1,"CD","Base",113,11,11,25.72332,-100.19058,"Hogar Reunión","UT_TRAFICO_VEHICULAR","TRAIN","Oxxo, Avenida Acapulco, Guadalupe, Nuevo León, 67112, México","67112","Nuevo León"
873,1,"C","Receso",58.12,0,0,25.69741,-100.13975,"Parada Técnica","UT_TRAFICO_VEHICULAR","TRAIN","Calle Valle De Los Nardos, Parque Industrial FINSA Guadalupe-Aeropuerto, Guadalupe, Nuevo León, 66647, México","66647","Nuevo León"
254,1,"C","Hogar",113,12,7,25.66872,-100.2344,"Hogar Reunión","UT_GAS_URBANA","TRAIN","Oxxo, Avenida Pablo Livas, Las Villas, Guadalupe, Nuevo León, 67160, México","67160","Nuevo León"
735,1,"C","Hogar",83.57,12,0,25.71611,-100.18296,"Hogar Reunión","UT_DENSIDAD","TRAIN","Avenida Mixcoac, Mixcoac, Guadalupe, Nuevo León, 67112, México","67112","Nuevo León"
746,1,"C","Hogar",104.1,15,0,25.6867,-100.19352,"Hogar Reunión","UT_DENSIDAD","TRAIN","Avenida General Plutarco Elías Calles, Guadalupe, Nuevo León, 67169, México","67169","Nuevo León"
141,1,"BC","Hogar",98.5,11,6,25.68098,-100.23912,"Hogar Reunión","UT_DENSIDAD","TRAIN","Agua Roja, La Fuente, Guadalupe, Nuevo León, 67150, México","67150","Nuevo León"
259,1,"C","Base",99.08,10,0,25.67765,-100.2596,"Oficinistas","UT_TRAFICO_PEATONAL","TRAIN","123, Calle Miguel Hidalgo y Costilla, Centro, Guadalupe, Nuevo León, 64590, México","64590","Nuevo León"
753,1,"C","Hogar",103.64,14,0,25.72788,-100.18008,"Hogar Reunión","UT_DENSIDAD","TRAIN","Avenida Mixcoac, Cañada Blanca, Guadalupe, Nuevo León, 66648, México","66648","Nuevo León"
754,1,"C","Hogar",119.75,15,0,25.71732,-100.19217,"Hogar Reunión","UT_DENSIDAD","TRAIN","Calle Premier, Guadalupe, Nuevo León, 67112, México","67112","Nuevo León"
145,1,"BC","Hogar",112.5,13,6,25.66404,-100.21449,"Hogar Reunión","UT_DENSIDAD","TRAIN","Oxxo, Emiliano Zapata, Guadalupe Victoria, Guadalupe, Nuevo León, 67180, México","67180","Nuevo León"
765,1,"C","Hogar",94.42,13,0,25.69325,-100.23738,"Oficinistas","UT_DENSIDAD","TRAIN","14 de Mayo, Riberas de la Purisima, Guadalupe, Nuevo León, 67138, México","67138","Nuevo León"
766,1,"C","Base",118.52,15,0,25.72372,-100.14054,"Hogar Reunión","UT_TRAFICO_VEHICULAR","TRAIN","Accadia Residencial, Apodaca, Nuevo León, 66647, México","66647","Nuevo León"
395,1,"C","Hogar",79.55,10,4,25.67661,-100.24879,"Hogar Reunión","UT_DENSIDAD","TRAIN","820, Calle Guadalupe, Centro, Guadalupe, Nuevo León, 64590, México","64590","Nuevo León"
253,1,"C","Hogar",117,12,11,25.72968,-100.17269,"Hogar Reunión","UT_DENSIDAD","TRAIN","Oxxo, Avenida Los Suizos, Apodaca, Nuevo León, 66648, México","66648","Nuevo León"
769,1,"C","Base",108.8,15,0,25.69461,-100.17078,"Oficinistas","UT_TRAFICO_VEHICULAR","TRAIN","Boulevard Miguel de la Madrid, Guadalupe, Nuevo León, 67116, México","67116","Nuevo León"
152,1,"BC","Hogar",102.1,13,8,25.66861,-100.24023,"Hogar Reunión","UT_DENSIDAD","TRAIN","La Quinta, Guadalupe, Nuevo León, 67160, México","67160","Nuevo León"
783,1,"C","Hogar",114.47,14,0,25.6989,-100.1506,"Hogar Reunión","UT_DENSIDAD","TRAIN","Calle José María Coss, Guadalupe, Nuevo León, 66647, México","66647","Nuevo León"
789,1,"C","Hogar",100.7,0,0,25.71404,-100.17443,"Hogar Reunión","UT_DENSIDAD","TRAIN","Miguel Hidalgo y Costilla, San Miguel, Apodaca, Nuevo León, 66648, México","66648","Nuevo León"
248,1,"CD","Base",100.28,13,7,25.70751,-100.19946,"Oficinistas","UT_GAS_URBANA","TRAIN","Oxxo, Avenida Adolfo Ruíz Cortines, Guadalupe, Nuevo León, 67112, México","67112","Nuevo León"
156,1,"BC","Hogar",115,11,0,25.67567,-100.22221,"Hogar Reunión","UT_DENSIDAD","TRAIN","Avenida Benito Juárez, Guadalupe Chavez, Guadalupe, Nuevo León, 67180, México","67180","Nuevo León"
247,1,"D","Hogar",104.6,13,10,25.69494,-100.21911,"Hogar Reunión","UT_DENSIDAD","TRAIN","Avenida San Rafael, San Rafael, Guadalupe, Nuevo León, 67118, México","67118","Nuevo León"
474,1,"C","Hogar",115.79,13,11,25.71698,-100.13154,"Hogar Reunión","UT_DENSIDAD","TRAIN","Oxxo, Avenida Lomas de México, PRADERAS DE HUINALA, Apodaca, Nuevo León, 66647, México","66647","Nuevo León"
453,1,"C","Base",107.02,13,8,25.74442,-100.16092,"Hogar Reunión","UT_GAS_URBANA","TRAIN","Oxxo, Apodaca a Villa Juárez, Apodaca, Nuevo León, 66644, México","66644","Nuevo León"
455,1,"C","Hogar",119.51,13,7,25.73055,-100.18982,"Hogar Reunión","UT_DENSIDAD","TRAIN","Avenida Guadalajara, Josefa Zozaya, Guadalupe, Apodaca, Nuevo León, 66634, México","66634","Nuevo León"
366,1,"C","Hogar",100,10,7,25.66606,-100.26935,"Hogar Reunión","UT_GAS_URBANA","TRAIN","Oxxo, Valle de México, Valles de Chapultepec, Guadalupe, Nuevo León, 67140, México","67140","Nuevo León"
365,1,"C","Base",97.54,13,5,25.6751,-100.21091,"Oficinistas","UT_TRAFICO_PEATONAL","TRAIN","Oxxo, Fresno, Chulavista, Guadalupe, Nuevo León, 67180, México","67180","Nuevo León"
456,1,"C","Hogar",127.9,13,10,25.74066,-100.1661,"Hogar Reunión","UT_DENSIDAD","TRAIN","Oxxo, Antiguo Camino Monterrey - Huinalá, Centro de Huinalá, Apodaca, Nuevo León, 66644, México","66644","Nuevo León"
457,1,"C","Hogar",81.3,10,7,25.73088,-100.15723,"Hogar Reunión","UT_DENSIDAD","TRAIN","Prolongación Rodesia, Apodaca, Nuevo León, 66648, México","66648","Nuevo León"
458,1,"C","Hogar",101.46,13,5,25.70524,-100.20732,"Hogar Reunión","UT_DENSIDAD","TRAIN","Calle el Fortín, Villa de San Miguel, Guadalupe, Nuevo León, 67118, México","67118","Nuevo León"
361,1,"C","Hogar",93,12,5,25.71936,-100.16773,"Hogar Reunión","UT_DENSIDAD","TRAIN","Oxxo, Camino a los Magueyes, Valle de San Miguel, Apodaca, Nuevo León, 66648, México","66648","Nuevo León"
464,1,"C","Hogar",138.92,13,6,25.70318,-100.24274,"Hogar Reunión","UT_DENSIDAD","TRAIN","Doctor Román de los Santos, La Luz, Guadalupe, Nuevo León, 66494, México","66494","Nuevo León"
358,1,"C","Base",93,10,11,25.70128,-100.16365,"Hogar Reunión","UT_GAS_URBANA","TRAIN","Oxxo, Lasso, Privadas de San Miguel, Guadalupe, Nuevo León, 66647, México","66647","Nuevo León"
447,1,"C","Hogar",83.9,13,5,25.73034,-100.16336,"Hogar Reunión","UT_TRAFICO_VEHICULAR","TRAIN","Avenida Rodesia del Norte, Apodaca, Nuevo León, 66648, México","66648","Nuevo León"
356,1,"C","Hogar",77,10,8,25.66098,-100.26814,"Hogar Reunión","UT_TRAFICO_VEHICULAR","TRAIN","2813, Prolongacíon Churubusco, Valles de Chapultepec, Guadalupe, Nuevo León, 67140, México","67140","Nuevo León"
355,1,"C","Hogar",90,10,6,25.66743,-100.25439,"Hogar Reunión","UT_TRAFICO_VEHICULAR","TRAIN","La Pastora, Guadalupe, Nuevo León, 67174, México","67174","Nuevo León"
484,1,"C","Hogar",115.75,13,10,25.71093,-100.13501,"Hogar Reunión","UT_DENSIDAD","TRAIN","Lomas del Tíbet, Lomas de la Paz, Apodaca, Nuevo León, 66647, México","66647","Nuevo León"
493,1,"C","Base",119.41,13,9,25.68103,-100.25271,"Hogar Reunión","UT_TRAFICO_VEHICULAR","TRAIN","Oxxo, Calle General Nicolás Bravo, La Huerta, Guadalupe, Nuevo León, 64590, México","64590","Nuevo León"
352,1,"C","Base",105,10,8,25.74532,-100.17814,"Parada Técnica","UT_GAS_URBANA","TRAIN","Oxxo, Calle 21 de Marzo, Apodaca, Nuevo León, 66645, México","66645","Nuevo León"
351,1,"C","Base",93,10,7,25.67929,-100.26519,"Oficinistas","UT_GAS_URBANA","TRAIN","Oxxo, Avenida Benito Juárez, Centro, Guadalupe, Nuevo León, 64590, México","64590","Nuevo León"
495,1,"C","Base",115.7,13,11,25.66923,-100.23264,"Hogar Reunión","UT_TRAFICO_VEHICULAR","TRAIN","Tamaulipas, Vivienda Popular, Guadalupe, Nuevo León, 67160, México","67160","Nuevo León"
503,1,"C","Hogar",81.59,11,8,25.67292,-100.25155,"Hogar Reunión","UT_DENSIDAD","TRAIN","Marte, Guadalupe, Nuevo León, 67176, México","67176","Nuevo León"
348,1,"C","Hogar",100,10,11,25.69414,-100.1901,"Hogar Reunión","UT_DENSIDAD","TRAIN","Oxxo, Avenida Principal, Nuevo San Miguel, Guadalupe, Nuevo León, 67116, México","67116","Nuevo León"
506,1,"C","Hogar",105.66,13,8,25.70051,-100.18745,"Hogar Reunión","UT_DENSIDAD","TRAIN","Avenida Jardines del Río, Jardines del Río, Guadalupe, Nuevo León, 67116, México","67116","Nuevo León"
401,1,"C","Hogar",92.52,12,9,25.71205,-100.16304,"Hogar Reunión","UT_TRAFICO_VEHICULAR","TRAIN","Carretera San Miguel, Apodaca, Nuevo León, 66647, México","66647","Nuevo León"
389,1,"BC","Base",98.08,12,9,25.74648,-100.19411,"Hogar Reunión","UT_GAS_URBANA","TRAIN","Oxxo, Hacienda San Javier, Apodaca, Nuevo León, 66634, México","66634","Nuevo León"
402,1,"C","Hogar",103.27,13,9,25.72369,-100.16661,"Hogar Reunión","UT_TRAFICO_VEHICULAR","TRAIN","Avenida El Campanario, El Campanario, Apodaca, Nuevo León, 66648, México","66648","Nuevo León"
404,1,"C","Base",112.87,13,9,25.67993,-100.25752,"Oficinistas","UT_DENSIDAD","TRAIN","Calle Mier y Noriega, Centro, Guadalupe, Nuevo León, 64590, México","64590","Nuevo León"
406,1,"C","Hogar",76.69,10,5,25.6645,-100.26545,"Clásico","UT_DENSIDAD","TRAIN","La Herradura, Guadalupe, Nuevo León, 67140, México","67140","Nuevo León"
407,1,"C","Base",118.47,13,7,25.73733,-100.20671,"Oficinistas","UT_GAS_URBANA","TRAIN","Oxxo, Avenida Miguel Alemán, Apodaca, Nuevo León, 66478, México","66478","Nuevo León"
409,1,"C","Hogar",95.68,13,7,25.66723,-100.22505,"Hogar Reunión","UT_TRAFICO_VEHICULAR","TRAIN","Oxxo, Avenida Pablo Livas, Camino Real, Guadalupe, Nuevo León, 67160, México","67160","Nuevo León"
411,1,"C","Hogar",109.85,13,9,25.70931,-100.1846,"Hogar Reunión","UT_TRAFICO_VEHICULAR","TRAIN","Oxxo, Avenida Adolfo Ruíz Cortines, Guadalupe, Nuevo León, 67112, México","67112","Nuevo León"
417,1,"C","Base",95.22,12,8,25.66245,-100.23941,"Hogar Reunión","UT_TRAFICO_VEHICULAR","TRAIN","2309, Avenida Profesor Eloy Cavazos, Las Villas, Guadalupe, Nuevo León, 67160, México","67160","Nuevo León"
423,1,"C","Base",85.18,12,6,25.6728,-100.23769,"Hogar Reunión","UT_TRAFICO_VEHICULAR","TRAIN","Oxxo, Avenida Las Torres, Tolteca, Guadalupe, Nuevo León, 67160, México","67160","Nuevo León"
635,1,"C","Base",120.27,14,0,25.6638,-100.25769,"Hogar Reunión","UT_TRAFICO_VEHICULAR","TRAIN","1250, Avenida Puesta del Sol, Puesta del Sol, Guadalupe, Nuevo León, 67174, México","67174","Nuevo León"
425,1,"C","Hogar",116.15,13,7,25.73241,-100.17578,"Hogar Reunión","UT_DENSIDAD","TRAIN","Oxxo, Selene, San Miguel 3°, Apodaca, Nuevo León, 66648, México","66648","Nuevo León"
427,1,"C","Hogar",122.63,13,9,25.73371,-100.18386,"Hogar Reunión","UT_DENSIDAD","TRAIN","Oxxo, Manuel Gonzáles Caballero, Deportivo Huinalá, Apodaca, Nuevo León, 66634, México","66634","Nuevo León"
431,1,"C","Hogar",119.24,13,8,25.66744,-100.2239,"Hogar Reunión","UT_DENSIDAD","TRAIN","Camino Real, Guadalupe Chavez, Guadalupe, Nuevo León, 67180, México","67180","Nuevo León"
433,1,"C","Base",127.4,13,10,25.70933,-100.23586,"Hogar Reunión","UT_DENSIDAD","TRAIN","1010, Avenida Uno, Central de Carga, Guadalupe, Nuevo León, 66494, México","66494","Nuevo León"
438,1,"C","Hogar",117.61,13,7,25.69605,-100.21036,"Hogar Reunión","UT_DENSIDAD","TRAIN","4036, Calle Andrés Quintana Roo, Nuevo San Rafael, Guadalupe, Nuevo León, 67118, México","67118","Nuevo León"
374,1,"C","Base",107.92,13,11,25.72258,-100.14044,"Hogar Reunión","UT_CARRETERA_GAS","TRAIN","Oxxo, Antiguo Camino Huinala-Villa Juárez, Campestre Huinalá, Apodaca, Nuevo León, 66647, México","66647","Nuevo León"
439,1,"C","Hogar",115.55,13,0,25.71549,-100.20702,"Hogar Reunión","UT_DENSIDAD","TRAIN","OXXO fortín, Alejandria, Pedregal de Linda Vista, Guadalupe, Nuevo León, 67112, México","67112","Nuevo León"
372,1,"CD","Hogar",80.56,12,11,25.65999,-100.23217,"Hogar Reunión","UT_TRAFICO_VEHICULAR","TRAIN","Oxxo, 15 de Mayo, Guadalupe, Nuevo León, 67170, México","67170","Nuevo León"
441,1,"CD","Hogar",111.48,13,8,25.72353,-100.17124,"Hogar Reunión","UT_DENSIDAD","TRAIN","Cobre, Rincón de San Miguel, Apodaca, Nuevo León, 66648, México","66648","Nuevo León"
446,1,"C","Hogar",126.8,13,9,25.68774,-100.18129,"Hogar Reunión","UT_DENSIDAD","TRAIN","Avenida General Plutarco Elías Calles, Guadalupe, Nuevo León, 67116, México","67116","Nuevo León"
612,1,"C","Hogar",101.06,12,0,25.74353,-100.17685,"Hogar Reunión","UT_DENSIDAD","TRAIN","Encino, Encinos Residencial, Apodaca, Nuevo León, 66645, México","66645","Nuevo León"
587,1,"C","Hogar",91.25,13,0,25.72789,-100.1931,"Hogar Reunión","UT_DENSIDAD","TRAIN","Calle México, Eduardo Caballero, Guadalupe, Nuevo León, 66634, México","66634","Nuevo León"
346,1,"C","Hogar",90,10,4,25.74205,-100.19846,"Hogar Reunión","UT_DENSIDAD","TRAIN","Oxxo, Cerrada Coapexco, Valle de Huinala II, Apodaca, Nuevo León, 66634, México","66634","Nuevo León"
322,1,"C","Base",100,10,9,25.65836,-100.22371,"Hogar Reunión","UT_DENSIDAD","TRAIN","Avenida Profesor Eloy Cavazos, Rafael Ramirez, Guadalupe, Nuevo León, 67182, México","67182","Nuevo León"
321,1,"C","Hogar",102,10,9,25.70853,-100.15266,"Hogar Reunión","UT_DENSIDAD","TRAIN","Avenida Orquídea, Hacienda Las Margaritas, Apodaca, Nuevo León, 66647, México","66647","Nuevo León"
591,1,"C","Hogar",86.41,13,0,25.65561,-100.22113,"Hogar Reunión","UT_DENSIDAD","TRAIN","Cerro de la Silla, Almaguer, Guadalupe, Nuevo León, 67182, México","67182","Nuevo León"
302,1,"CD","Base",130,13,13,25.67635,-100.26692,"Hogar Reunión","UT_TRAFICO_PEATONAL","TRAIN","Calle Guadalupe, Centro, Guadalupe, Nuevo León, 64590, México","64590","Nuevo León"
633,1,"C","Hogar",103.05,12,0,25.72512,-100.18482,"Hogar Reunión","UT_DENSIDAD","TRAIN","Miguel Auza, Cañada Blanca, Guadalupe, Nuevo León, 67112, México","67112","Nuevo León"
616,1,"C","Hogar",96.93,12,0,25.70758,-100.16037,"Hogar Reunión","UT_DENSIDAD","TRAIN","Avenida Orquídea, Los Pinceles, Apodaca, Nuevo León, 66647, México","66647","Nuevo León"
306,1,"C","Base",182,13,4,25.67946,-100.2584,"Oficinistas","UT_DENSIDAD","TRAIN","Oxxo, General Ignacio Zaragoza, Centro, Guadalupe, Nuevo León, 64590, México","64590","Nuevo León"
307,1,"C","Hogar",114,13,9,25.66859,-100.26665,"Hogar Reunión","UT_DENSIDAD","TRAIN","1000, Calle Cuauhtémoc, Polanco, Guadalupe, Nuevo León, 64590, México","64590","Nuevo León"
593,1,"C","Hogar",111.14,13,0,25.74583,-100.16589,"Hogar Reunión","UT_DENSIDAD","TRAIN","Boulevard Padre Mier, Centro de Huinalá, Apodaca, Nuevo León, 66645, México","66645","Nuevo León"
509,1,"C","Base",115.72,13,7,25.66655,-100.21398,"Hogar Reunión","UT_TRAFICO_VEHICULAR","TRAIN","Gullermo Prieto, Guadalupe Victoria, Guadalupe, Nuevo León, 67180, México","67180","Nuevo León"
611,1,"C","Base",115.66,13,0,25.68666,-100.23036,"Barrio Competido","UT_DENSIDAD","TRAIN","Fuerte Guadalupe, Ignacio Zaragoza, Guadalupe, Nuevo León, 67150, México","67150","Nuevo León"
318,1,"C","Hogar",107,10,8,25.74066,-100.16799,"Hogar Reunión","UT_DENSIDAD","TRAIN","Oxxo, Avenida los Prados, Apodaca, Nuevo León, 66645, México","66645","Nuevo León"
317,1,"C","Hogar",104,13,11,25.66909,-100.26294,"Hogar Reunión","UT_DENSIDAD","TRAIN","Insurgentes, Polanco, Guadalupe, Nuevo León, 67174, México","67174","Nuevo León"
594,1,"C","Hogar",98.07,13,0,25.72671,-100.17316,"Hogar Reunión","UT_DENSIDAD","TRAIN","Oxxo, Avenida del Teléfono, Apodaca, Nuevo León, 66648, México","66648","Nuevo León"
315,1,"BC","Hogar",93,10,7,25.65235,-100.26606,"Clásico","UT_DENSIDAD","TRAIN","106, Calle Valle de Champagne, Valle del Contry, Guadalupe, Nuevo León, 67140, México","67140","Nuevo León"
314,1,"C","Base",107,13,13,25.67509,-100.26958,"Hogar Reunión","UT_DENSIDAD","TRAIN","200, Calle Triunfo De La República, Paraiso, Guadalupe, Nuevo León, 64590, México","64590","Nuevo León"
597,1,"C","Hogar",110.73,14,0,25.6714,-100.21653,"Hogar Reunión","UT_DENSIDAD","TRAIN","Avenida Mármol, Parques de Guadalupe, Guadalupe, Nuevo León, 67180, México","67180","Nuevo León"
598,1,"C","Hogar",96.69,12,0,25.68012,-100.22238,"Hogar Reunión","UT_DENSIDAD","TRAIN","Fontana, Riberas del Río, Guadalupe, Nuevo León, 67150, México","67150","Nuevo León"
599,1,"C","Hogar",114.63,13,6,25.67213,-100.23018,"Hogar Reunión","UT_DENSIDAD","TRAIN","Oxxo, 15 de Mayo, Guadalupe, Nuevo León, 67160, México","67160","Nuevo León"
585,1,"C","Hogar",112.9,12,0,25.66144,-100.21849,"Hogar Reunión","UT_DENSIDAD","TRAIN","Avenida Mármol, Luis Mora, Guadalupe, Nuevo León, 67180, México","67180","Nuevo León"
519,1,"C","Base",115.03,13,6,25.68449,-100.2262,"Hogar Reunión","UT_TRAFICO_VEHICULAR","TRAIN","3018, Avenida General Plutarco Elías Calles, Riberas del Río, Guadalupe, Nuevo León, 67150, México","67150","Nuevo León"
536,1,"C","Hogar",114.87,13,10,25.6581,-100.22496,"Hogar Reunión","UT_DENSIDAD","TRAIN","Arboledas de la Silla, Guadalupe, Nuevo León, 67182, México","67182","Nuevo León"
541,1,"C","Hogar",109.97,13,7,25.70214,-100.25043,"Hogar Reunión","UT_DENSIDAD","TRAIN","Avenida Anáhuac, Hercules, Guadalupe, Nuevo León, 67138, México","67138","Nuevo León"
557,1,"C","Hogar",84.08,12,4,25.6704,-100.21162,"Hogar Reunión","UT_DENSIDAD","TRAIN","Emiliano Zapata, Jardines de Santa Clara, Guadalupe, Nuevo León, 67180, México","67180","Nuevo León"
559,1,"C","Hogar",92.18,13,8,25.72444,-100.15672,"Hogar Reunión","UT_DENSIDAD","TRAIN","Oxxo, Camino a Charco Blanco, Bosque Boreal, Apodaca, Nuevo León, 66648, México","66648","Nuevo León"
562,1,"C","Hogar",104.62,13,0,25.69635,-100.20652,"Hogar Reunión","UT_DENSIDAD","TRAIN","20 de Noviembre, Emiliano Zapata Fomerrey 18, Guadalupe, Nuevo León, 67118, México","67118","Nuevo León"
564,1,"C","Hogar",115.51,13,0,25.68658,-100.21385,"Hogar Reunión","UT_TRAFICO_VEHICULAR","TRAIN","12 de Octubre, 21 de Enero, Guadalupe, Nuevo León, 67118, México","67118","Nuevo León"
571,1,"C","Hogar",112.89,13,0,25.74155,-100.18463,"Hogar Reunión","UT_DENSIDAD","TRAIN","Oxxo, Avenida Héctor Caballero, Corporación Mitsuba de México S.A. de C.V., Apodaca, Nuevo León, 66634, México","66634","Nuevo León"
332,1,"B","Receso",136,13,6,25.69665,-100.14323,"Oficinistas","UT_DENSIDAD","TRAIN","Oxxo, Vía Rápida a Monterrey, Guadalupe, Nuevo León, 66647, México","66647","Nuevo León"
324,1,"C","Hogar",97,13,5,25.69969,-100.21334,"Hogar Reunión","UT_DENSIDAD","TRAIN","Oxxo, Calle Acuamarina, Guadalupe, Nuevo León, 67118, México","67118","Nuevo León"
582,1,"C","Hogar",120.33,11,0,25.69596,-100.18514,"Hogar Reunión","UT_DENSIDAD","TRAIN","502, Raúl Rangel Frías, Guadalupe, Nuevo León, 67116, México","67116","Nuevo León"
583,1,"C","Hogar",113.5,13,0,25.66215,-100.22198,"Hogar Reunión","UT_DENSIDAD","TRAIN","Andrés Quintana Roo, Luis Mora, Guadalupe, Nuevo León, 67180, México","67180","Nuevo León"
329,1,"C","Receso",71,13,5,25.70334,-100.239,"Oficinistas","UT_GAS_URBANA","TRAIN","Oxxo, Avenida Adolfo Ruíz Cortines, Central de Carga, Guadalupe, Nuevo León, 66494, México","66494","Nuevo León"
575,1,"C","Hogar",99.73,13,4,25.6737,-100.27038,"Hogar Reunión","UT_DENSIDAD","TRAIN","León, Paraiso, Guadalupe, Nuevo León, 64590, México","64590","Nuevo León"
326,1,"B","Hogar",118,12,4,25.7292,-100.17807,"Hogar Reunión","UT_DENSIDAD","TRAIN","Avenida Los Suizos, Zozayita, Apodaca, Nuevo León, 66648, México","66648","Nuevo León"
328,1,"C","Receso",116,10,6,25.69583,-100.23188,"Oficinistas","UT_GAS_URBANA","TRAIN","Oxxo, Avenida San Rafael, Guadalupe, Nuevo León, 67138, México","67138","Nuevo León"
327,1,"C","Hogar",98,10,9,25.67151,-100.25856,"Hogar Reunión","UT_DENSIDAD","TRAIN","625, General Ignacio Zaragoza, La Pastora, Guadalupe, Nuevo León, 67174, México","67174","Nuevo León"
878,2,"C","Hogar",111.7,12,10,26.03851,-98.35729,"Hogar Reunión","UT_DENSIDAD","TRAIN","Avenida Las Lomas, Reynosa, Tamaulipas, 88500, México","88500","Tamaulipas"
856,2,"C","Receso",0,0,0,26.04652,-98.38172,"Parada Técnica","UT_TRAFICO_VEHICULAR","TRAIN","Calle Revolución, Reynosa, Tamaulipas, 88500, México","88500","Tamaulipas"
855,2,"B","Base",0,0,0,26.04971,-98.31442,"Clásico","UT_TRAFICO_VEHICULAR","TRAIN","Calle Ignacio De La Garza, Reynosa, Tamaulipas, 88500, México","88500","Tamaulipas"
854,2,"C","Hogar",0,0,0,26.04082,-98.31979,"Hogar Reunión","UT_DENSIDAD","TRAIN","Miguel hidalgo, Reynosa, Tamaulipas, 88500, México","88500","Tamaulipas"
848,2,"C","Hogar",0,0,0,26.09732,-98.29138,"Hogar Reunión","UT_DENSIDAD","TRAIN","Calle División del Norte, Reynosa, Tamaulipas, 88500, México","88500","Tamaulipas"
851,2,"C","Hogar",0,0,0,26.06185,-98.32044,"Clásico","UT_DENSIDAD","TRAIN","Calle Fuente de Trevi, Reynosa, Tamaulipas, 88500, México","88500","Tamaulipas"
853,2,"C","Hogar",0,0,0,25.97227,-98.29033,"Hogar Reunión","UT_DENSIDAD","TRAIN","Reynosa, Tamaulipas, 88799, México","88799","Tamaulipas"
798,2,"C","Hogar",0,0,0,25.99222,-98.09663,"Hogar Reunión","UT_TRAFICO_VEHICULAR","TRAIN","Calle Tlaxcala, Río Bravo, Tamaulipas, 88900, México","88900","Tamaulipas"
802,2,"C","Base",0,0,0,25.9898,-98.1002,"Hogar Reunión","UT_TRAFICO_VEHICULAR","TRAIN","Calle 5 de Mayo, Río Bravo, Tamaulipas, 88950, México","88950","Tamaulipas"
803,2,"C","Base",0,0,0,25.9872,-98.1074,"Oficinistas","UT_TRAFICO_VEHICULAR","TRAIN","Avenida Francisco I. Madero, Río Bravo, Tamaulipas, 88950, México","88950","Tamaulipas"
805,2,"C","Hogar",0,0,0,26.0835,-98.33,"Hogar Reunión","UT_DENSIDAD","TRAIN","N. Treviño Zapata, Reynosa, Tamaulipas, 88500, México","88500","Tamaulipas"
806,2,"B","Base",0,0,0,26.069,-98.2719,"Clásico","UT_TRAFICO_VEHICULAR","TRAIN","Calle Veracruz, Reynosa, Tamaulipas, 88500, México","88500","Tamaulipas"
807,2,"B","Hogar",0,0,0,26.07896,-98.33792,"Hogar Reunión","UT_DENSIDAD","TRAIN","Calle Pasito, Reynosa, Tamaulipas, 88500, México","88500","Tamaulipas"
808,2,"C","Base",0,0,0,26.02103,-98.27533,"Hogar Reunión","UT_TRAFICO_VEHICULAR","TRAIN","Calle Margarita Maza de Juárez, Reynosa, Tamaulipas, 88500, México","88500","Tamaulipas"
809,2,"C","Hogar",0,0,0,26.03188,-98.34141,"Hogar Reunión","UT_DENSIDAD","TRAIN","Calle Hacienda del Sol, Reynosa, Tamaulipas, 88500, México","88500","Tamaulipas"
839,2,"C","Peatonal",0,0,0,26.08506,-98.27164,"Oficinistas","UT_TRAFICO_PEATONAL","TRAIN","Soriana Super, Calle Cristóbal Colón, Reynosa, Tamaulipas, 88500, México","88500","Tamaulipas"
811,2,"B","Hogar",0,0,0,26.0562,-98.3151,"Clásico","UT_DENSIDAD","TRAIN","Calle Sierra Leona, Reynosa, Tamaulipas, 88500, México","88500","Tamaulipas"
813,2,"C","Hogar",0,0,0,25.992,-98.114,"Hogar Reunión","UT_TRAFICO_VEHICULAR","TRAIN","Calle Álamo, Río Bravo, Tamaulipas, 88950, México","88950","Tamaulipas"
816,2,"B","Hogar",0,0,0,26.09528,-98.28297,"Hogar Reunión","UT_DENSIDAD","TRAIN","Calle Ignacio Allende, Reynosa, Tamaulipas, 88500, México","88500","Tamaulipas"
817,2,"C","Receso",0,0,0,26.08866,-98.27988,"Oficinistas","UT_TRAFICO_PEATONAL","TRAIN","Calle Cristóbal Colón, Reynosa, Tamaulipas, 88500, México","88500","Tamaulipas"
819,2,"C","Base",0,0,0,26.0669,-98.39358,"Hogar Reunión","UT_DENSIDAD","TRAIN","Boulevard Vista Alta, Reynosa, Tamaulipas, 88715, México","88715","Tamaulipas"
822,2,"C","Base",0,0,0,25.98347,-98.11129,"Hogar Reunión","UT_TRAFICO_VEHICULAR","TRAIN","Avenida José María Morelos y Pavón, Río Bravo, Tamaulipas, 88950, México","88950","Tamaulipas"
835,2,"C","Hogar",0,0,0,26.01647,-98.25479,"Hogar Reunión","UT_DENSIDAD","TRAIN","Calle 5 de Mayo, Reynosa, Tamaulipas, 88500, México","88500","Tamaulipas"
999,2,"C","Receso",102.75,11,4,26.02147,-98.28373,"Barrio Competido","UT_TRAFICO_PEATONAL","TRAIN","Calle Héroes de la Reforma, Reynosa, Tamaulipas, 88500, México","88500","Tamaulipas"
988,2,"C","Hogar",101.82,12,10,26.03533,-98.29644,"Hogar Reunión","UT_TRAFICO_VEHICULAR","TRAIN","Calle Sonora, Reynosa, Tamaulipas, 88500, México","88500","Tamaulipas"
989,2,"C","Hogar",101.82,12,10,26.0434,-98.32001,"Hogar Reunión","UT_DENSIDAD","TRAIN","Calle Ingeniero Américo Villarreal Guerra, Reynosa, Tamaulipas, 88500, México","88500","Tamaulipas"
991,2,"C","Hogar",116.98,13,10,26.01263,-98.24741,"Barrio Competido","UT_GAS_URBANA","TRAIN","Reynosa, Tamaulipas, 88500, México","88500","Tamaulipas"
992,2,"C","Base",100.41,12,10,26.10101,-98.31804,"Hogar Reunión","UT_GAS_URBANA","TRAIN","Calle Lábaro Patrio, Reynosa, Tamaulipas, 88500, México","88500","Tamaulipas"
993,2,"B","Hogar",113.73,12,10,26.06883,-98.3598,"Hogar Reunión","UT_DENSIDAD","TRAIN","Oxxo, Avenida del Parque, Reynosa, Tamaulipas, 88500, México","88500","Tamaulipas"
994,2,"C","Hogar",113.73,12,7,26.08696,-98.33805,"Hogar Reunión","UT_DENSIDAD","TRAIN","Calle República Checa, Reynosa, Tamaulipas, 88500, México","88500","Tamaulipas"
995,2,"C","Base",106.6,12,10,26.03482,-98.40996,"Hogar Reunión","UT_GAS_URBANA","TRAIN","Calle San Valentín, Fracc. Loma Real, Reynosa, Tamaulipas, 88733, México","88733","Tamaulipas"
996,2,"C","Hogar",107.85,12,7,25.98884,-98.27356,"Hogar Reunión","UT_DENSIDAD","TRAIN","Privada Trébol, Reynosa, Tamaulipas, 88799, México","88799","Tamaulipas"
997,2,"C","Hogar",101.82,12,11,25.99333,-98.27173,"Hogar Reunión","UT_DENSIDAD","TRAIN","Privada Nardo, Reynosa, Tamaulipas, 88799, México","88799","Tamaulipas"
998,2,"AB","Hogar",107.85,12,12,26.07585,-98.26928,"Hogar Reunión","UT_TRAFICO_VEHICULAR","TRAIN","Boulevard Toteco, Reynosa, Tamaulipas, 88500, México","88500","Tamaulipas"
987,2,"C","Hogar",110,10,12,26.06031,-98.32753,"Hogar Reunión","UT_DENSIDAD","TRAIN","Avenida Mil Cumbres, Reynosa, Tamaulipas, 88500, México","88500","Tamaulipas"
1001,2,"C","Hogar",101.82,12,10,26.01288,-98.26235,"Hogar Reunión","UT_DENSIDAD","TRAIN","Calle José María Morelos, Reynosa, Tamaulipas, 88500, México","88500","Tamaulipas"
1002,2,"C","Hogar",116.9,10,11,26.0228,-98.28886,"Hogar Reunión","UT_DENSIDAD","TRAIN","Guatemala, Reynosa, Tamaulipas, 88500, México","88500","Tamaulipas"
1003,2,"C","Hogar",112,12,8,25.9956,-98.2471,"Hogar Reunión","UT_DENSIDAD","TRAIN","Calle Segunda, Reynosa, Tamaulipas, 88500, México","88500","Tamaulipas"
1004,2,"C","Hogar",93.52,12,9,26.09947,-98.32143,"Hogar Reunión","UT_DENSIDAD","TRAIN","Calle Jaime Nunó, Reynosa, Tamaulipas, 88500, México","88500","Tamaulipas"
1005,2,"C","Hogar",98.2,12,5,26.06356,-98.31124,"Hogar Reunión","UT_DENSIDAD","TRAIN","Calle Londres, Reynosa, Tamaulipas, 88500, México","88500","Tamaulipas"
1006,2,"C","Hogar",116.9,13,14,26.02128,-98.25349,"Hogar Reunión","UT_DENSIDAD","TRAIN","Calle 16 de Septiembre, Reynosa, Tamaulipas, 88500, México","88500","Tamaulipas"
1007,2,"C","Hogar",114.41,12,10,25.98434,-98.20065,"Hogar Reunión","UT_DENSIDAD","TRAIN","Santa Rosa, Reynosa, Tamaulipas, 88780, México","88780","Tamaulipas"
1008,2,"C","Hogar",98.8,12,10,26.08637,-98.32248,"Hogar Reunión","UT_DENSIDAD","TRAIN","Calle Francisco Javier Mina, Reynosa, Tamaulipas, 88500, México","88500","Tamaulipas"
1009,2,"C","Hogar",103.4,12,5,26.0701,-98.30796,"Hogar Reunión","UT_TRAFICO_VEHICULAR","TRAIN","Boulevard del Maestro, Reynosa, Tamaulipas, 88500, México","88500","Tamaulipas"
976,2,"C","Hogar",113,10,10,26.0948,-98.30479,"Hogar Reunión","UT_TRAFICO_VEHICULAR","TRAIN","Reynosa, Tamaulipas, 88500, México","88500","Tamaulipas"
965,2,"B","Hogar",98,10,10,25.98342,-98.10511,"Hogar Reunión","UT_DENSIDAD","TRAIN","Oxxo, Calle Oriente 4, Río Bravo, Tamaulipas, 88950, México","88950","Tamaulipas"
966,2,"C","Hogar",112,10,10,26.02126,-98.27927,"Hogar Reunión","UT_DENSIDAD","TRAIN","Calle Margarita Maza de Juárez, Reynosa, Tamaulipas, 88500, México","88500","Tamaulipas"
967,2,"C","Hogar",129,10,12,26.00751,-98.24571,"Hogar Reunión","UT_DENSIDAD","TRAIN","Calle Villas de Esmeralda, Reynosa, Tamaulipas, 88500, México","88500","Tamaulipas"
968,2,"B","Hogar",129,9,6,26.02023,-98.22689,"Parada Técnica","UT_GAS_URBANA","TRAIN","Calle Cerro de Padilla, Reynosa, Tamaulipas, 88500, México","88500","Tamaulipas"
969,2,"C","Receso",125,10,13,26.07305,-98.2914,"Clásico","UT_DENSIDAD","TRAIN","Calle Occidental, Reynosa, Tamaulipas, 88500, México","88500","Tamaulipas"
971,2,"C","Hogar",123,11,12,26.0366,-98.34031,"Hogar Reunión","UT_DENSIDAD","TRAIN","Avenida Punta Calabozo, Reynosa, Tamaulipas, 88500, México","88500","Tamaulipas"
972,2,"C","Receso",121,10,10,26.07018,-98.30235,"Hogar Reunión","UT_GAS_URBANA","TRAIN","Calle Loma Bonita, Reynosa, Tamaulipas, 88500, México","88500","Tamaulipas"
973,2,"C","Base",122,10,10,26.04916,-98.38596,"Parada Técnica","UT_GAS_URBANA","TRAIN","Boulevard Miguel Hidalgo y Costilla, Residencial Loma Bonita, Reynosa, Tamaulipas, 88500, México","88500","Tamaulipas"
974,2,"C","Hogar",113,11,12,26.04235,-98.37229,"Hogar Reunión","UT_DENSIDAD","TRAIN","Oxxo, Ebanos Poniente, Reynosa, Tamaulipas, 88500, México","88500","Tamaulipas"
975,2,"C","Hogar",129,10,12,26.0282,-98.28279,"Hogar Reunión","UT_DENSIDAD","TRAIN","Calle Héroes de la Reforma, Reynosa, Tamaulipas, 88500, México","88500","Tamaulipas"
1011,2,"C","Hogar",112,12,11,26.08553,-98.33515,"Hogar Reunión","UT_GAS_URBANA","TRAIN","Privada San Francisco, Reynosa, Tamaulipas, 88500, México","88500","Tamaulipas"
977,2,"C","Receso",125,10,12,26.03871,-98.28171,"Parada Técnica","UT_GAS_URBANA","TRAIN","Pemex, Carretera Reynosa-Río Bravo (Calle Porfirio Díaz), Reynosa, Tamaulipas, 88500, México","88500","Tamaulipas"
978,2,"BC","Receso",102.98,11,9,26.08548,-98.29332,"Parada Técnica","UT_GAS_URBANA","TRAIN","Calle Río Álamo, Reynosa, Tamaulipas, 88500, México","88500","Tamaulipas"
979,2,"BC","Hogar",115.67,12,10,25.98337,-98.08285,"Hogar Reunión","UT_GAS_URBANA","TRAIN","Avenida Francisco I. Madero, Río Bravo, Tamaulipas, 88900, México","88900","Tamaulipas"
981,2,"C","Hogar",121,10,10,26.05409,-98.35069,"Hogar Reunión","UT_DENSIDAD","TRAIN","Israel, Reynosa, Tamaulipas, 88500, México","88500","Tamaulipas"
982,2,"B","Hogar",100,10,6,26.06513,-98.31539,"Hogar Reunión","UT_DENSIDAD","TRAIN","Calle Catorce, Reynosa, Tamaulipas, 88500, México","88500","Tamaulipas"
983,2,"C","Hogar",117,11,12,25.99992,-98.25808,"Hogar Reunión","UT_DENSIDAD","TRAIN","Calle Fresno, Reynosa, Tamaulipas, 88500, México","88500","Tamaulipas"
984,2,"C","Hogar",116,10,8,26.06213,-98.33027,"Hogar Reunión","UT_GAS_URBANA","TRAIN","Calle Central, Reynosa, Tamaulipas, 88500, México","88500","Tamaulipas"
985,2,"C","Hogar",129,11,10,26.02486,-98.24565,"Parada Técnica","UT_DENSIDAD","TRAIN","Calle Doctor Rodríguez, Reynosa, Tamaulipas, 88500, México","88500","Tamaulipas"
986,2,"C","Hogar",101.82,12,10,26.01805,-98.26513,"Hogar Reunión","UT_DENSIDAD","TRAIN","Calle Adolfo Ruíz Cortines, Reynosa, Tamaulipas, 88500, México","88500","Tamaulipas"
1046,2,"C","Hogar",0,0,0,26.09036,-98.28066,"Oficinistas","UT_TRAFICO_VEHICULAR","TRAIN","Calle Pedro José Méndez, Reynosa, Tamaulipas, 88500, México","88500","Tamaulipas"
1035,2,"C","Hogar",123.69,0,11,26.01175,-98.28564,"Hogar Reunión","UT_DENSIDAD","TRAIN","Calle Héroes de la Reforma, Reynosa, Tamaulipas, 88500, México","88500","Tamaulipas"
1036,2,"C","Hogar",119.65,0,8,26.09085,-98.324,"Hogar Reunión","UT_DENSIDAD","TRAIN","Calle Jaime Nunó, Reynosa, Tamaulipas, 88500, México","88500","Tamaulipas"
1037,2,"C","Hogar",121.67,0,11,25.96746,-98.25733,"Hogar Reunión","UT_DENSIDAD","TRAIN","Avenida del Parque, Reynosa, Tamaulipas, 88799, México","88799","Tamaulipas"
1038,2,"C","Hogar",132.73,0,11,26.05081,-98.40391,"Barrio Competido","UT_DENSIDAD","TRAIN","Avenida Ventura Sur, Fracc. Loma Real, Reynosa, Tamaulipas, 88715, México","88715","Tamaulipas"
1039,2,"BC","Hogar",114.3,0,7,26.05491,-98.31887,"Hogar Reunión","UT_GAS_URBANA","TRAIN","Calle Sierra de San Carlos, Reynosa, Tamaulipas, 88500, México","88500","Tamaulipas"
1041,2,"B","Hogar",0,0,0,25.98343,-98.09802,"Hogar Reunión","UT_DENSIDAD","TRAIN","Oxxo, Avenida Las Américas, Río Bravo, Tamaulipas, 88900, México","88900","Tamaulipas"
1042,2,"C","Hogar",0,0,0,25.9756,-98.05814,"Hogar Reunión","UT_TRAFICO_VEHICULAR","TRAIN","Avenida Francisco I. Madero, Río Bravo, Tamaulipas, 88920, México","88920","Tamaulipas"
1043,2,"C","Hogar",0,0,0,26.05884,-98.34364,"Hogar Reunión","UT_TRAFICO_PEATONAL","TRAIN","Calle Sur Uno, Reynosa, Tamaulipas, 88500, México","88500","Tamaulipas"
1044,2,"C","Base",0,0,0,25.98861,-98.12478,"Parada Técnica","UT_DENSIDAD","TRAIN","Calle Ignacio Allende, Río Bravo, Tamaulipas, 88950, México","88950","Tamaulipas"
1045,2,"C","Hogar",0,0,0,25.98755,-98.05539,"Hogar Reunión","UT_DENSIDAD","TRAIN","Calle Pedro de Guzmán, Río Bravo, Tamaulipas, 88920, México","88920","Tamaulipas"
1034,2,"B","Hogar",132.73,0,12,26.0852,-98.37643,"Hogar Reunión","UT_DENSIDAD","TRAIN","Avenida de los Colorines Poniente, Villa Florida Sector B, Reynosa, Tamaulipas, 88500, México","88500","Tamaulipas"
1047,2,"C","Hogar",0,0,0,26.07928,-98.29009,"Clásico","UT_DENSIDAD","TRAIN","Calle Monterrey, Reynosa, Tamaulipas, 88500, México","88500","Tamaulipas"
1048,2,"C","Hogar",0,0,0,26.03145,-98.38466,"Hogar Reunión","UT_TRAFICO_VEHICULAR","TRAIN","Calle Kiwi, Reynosa, Tamaulipas, 88500, México","88500","Tamaulipas"
1049,2,"C","Hogar",0,0,0,26.00607,-98.12218,"Hogar Reunión","UT_DENSIDAD","TRAIN","Calle Satélite, Río Bravo, Tamaulipas, 88950, México","88950","Tamaulipas"
1051,2,"C","Hogar",0,0,0,26.03374,-98.29404,"Hogar Reunión","UT_DENSIDAD","TRAIN","Calle Ingeniero Américo Villarreal Guerra, Reynosa, Tamaulipas, 88500, México","88500","Tamaulipas"
1052,2,"B","Base",0,0,0,26.06517,-98.3448,"Parada Técnica","UT_DENSIDAD","TRAIN","Boulevard Miguel Hidalgo y Costilla, Reynosa, Tamaulipas, 88500, México","88500","Tamaulipas"
1053,2,"C","Hogar",0,0,0,26.04132,-98.29259,"Hogar Reunión","UT_DENSIDAD","TRAIN","Calle Nohelia, Reynosa, Tamaulipas, 88500, México","88500","Tamaulipas"
1054,2,"C","Hogar",0,0,0,26.09605,-98.29327,"Hogar Reunión","UT_DENSIDAD","TRAIN","Calle Mariano Matamoros, Reynosa, Tamaulipas, 88500, México","88500","Tamaulipas"
1055,2,"C","Hogar",0,0,0,26.01132,-98.3814,"Hogar Reunión","UT_DENSIDAD","TRAIN","Oxxo, Bulevar Puerta del Sol, Reynosa, Tamaulipas, 88500, México","88500","Tamaulipas"
1056,2,"C","Hogar",0,0,0,26.03571,-98.342,"Hogar Reunión","UT_DENSIDAD","TRAIN","Oxxo, Calle Puerto Vallarta, Reynosa, Tamaulipas, 88500, México","88500","Tamaulipas"
1023,2,"B","Hogar",121.67,0,10,26.05529,-98.28269,"Hogar Reunión","UT_DENSIDAD","TRAIN","Calle Amado Nervo, Reynosa, Tamaulipas, 88500, México","88500","Tamaulipas"
1012,2,"C","Hogar",105.2,12,8,26.00514,-98.25797,"Hogar Reunión","UT_GAS_URBANA","TRAIN","Boulevard Villas de Esmeralda, Reynosa, Tamaulipas, 88500, México","88500","Tamaulipas"
1013,2,"C","Hogar",111.04,12,7,26.05979,-98.41287,"Hogar Reunión","UT_DENSIDAD","TRAIN","Oxxo, Calle Egipto, Reynosa, Tamaulipas, 88715, México","88715","Tamaulipas"
1014,2,"C","Hogar",98.8,12,10,26.02676,-98.27125,"Hogar Reunión","UT_DENSIDAD","TRAIN","Calle Guinda, Reynosa, Tamaulipas, 88500, México","88500","Tamaulipas"
1015,2,"C","Hogar",116.26,13,12,26.02408,-98.39976,"Hogar Reunión","UT_DENSIDAD","TRAIN","Bulevar Campestre Bugambilia, Reynosa, Tamaulipas, 88733, México","88733","Tamaulipas"
1016,2,"C","Hogar",116.9,13,13,25.96921,-98.26604,"Barrio Competido","UT_DENSIDAD","TRAIN","Oxxo, Calle Paseo del Sol, Reynosa, Tamaulipas, 88799, México","88799","Tamaulipas"
1017,2,"BC","Hogar",116.9,13,11,26.04827,-98.31403,"Hogar Reunión","UT_DENSIDAD","TRAIN","Calle José De Escandón Y Helguera, Reynosa, Tamaulipas, 88500, México","88500","Tamaulipas"
1018,2,"C","Hogar",112,12,10,26.08398,-98.30804,"Hogar Reunión","UT_DENSIDAD","TRAIN","Calle Guadalupe Mainero, Reynosa, Tamaulipas, 88500, México","88500","Tamaulipas"
1019,2,"C","Hogar",122.8,0,11,26.03387,-98.39449,"Hogar Reunión","UT_DENSIDAD","TRAIN","Oxxo, Avenida Hacienda las Bugambilias, Reynosa, Tamaulipas, 88733, México","88733","Tamaulipas"
1021,2,"C","Hogar",0,0,0,25.98395,-98.19187,"Hogar Reunión","UT_DENSIDAD","TRAIN","Granja Reyna, Reynosa, Tamaulipas, 88780, México","88780","Tamaulipas"
1022,2,"C","Hogar",112,0,10,26.07911,-98.32554,"Hogar Reunión","UT_DENSIDAD","TRAIN","Calle Octava, Reynosa, Tamaulipas, 88500, México","88500","Tamaulipas"
964,2,"C","Base",96,10,10,26.00345,-98.24709,"Barrio Competido","UT_GAS_URBANA","TRAIN","Boulevard Villas de Esmeralda, Reynosa, Tamaulipas, 88500, México","88500","Tamaulipas"
1024,2,"B","Hogar",121.61,0,9,25.99884,-98.23915,"Hogar Reunión","UT_DENSIDAD","TRAIN","BrechaF-99, Reynosa, Tamaulipas, 88500, México","88500","Tamaulipas"
1025,2,"B","Hogar",112,0,10,26.04769,-98.40773,"Hogar Reunión","UT_DENSIDAD","TRAIN","Oxxo, Avenida Argentina, Fracc. Loma Real, Reynosa, Tamaulipas, 88715, México","88715","Tamaulipas"
1026,2,"C","Hogar",115.1,0,10,26.03266,-98.35633,"Hogar Reunión","UT_DENSIDAD","TRAIN","Oxxo, Calle Loma Escondida, Reynosa, Tamaulipas, 88500, México","88500","Tamaulipas"
1027,2,"C","Hogar",112.25,0,11,26.05567,-98.32805,"Hogar Reunión","UT_DENSIDAD","TRAIN","Calle Sur Tres, Reynosa, Tamaulipas, 88500, México","88500","Tamaulipas"
1028,2,"C","Hogar",117.5,0,15,26.06235,-98.37929,"Hogar Reunión","UT_DENSIDAD","TRAIN","Calle de las Jacarandas Sur, Reynosa, Tamaulipas, 88500, México","88500","Tamaulipas"
1029,2,"C","Hogar",104.95,0,10,26.03387,-98.25722,"Hogar Reunión","UT_DENSIDAD","TRAIN","Calle 13 de Septiembre, Reynosa, Tamaulipas, 88500, México","88500","Tamaulipas"
1031,2,"B","Hogar",111.93,0,10,26.40193,-99.03187,"Hogar Reunión","UT_DENSIDAD","TRAIN","Libramiento Eulogio Gómez García, Miguel Alemán, Tamaulipas, México",NA,"Tamaulipas"
1032,2,"C","Hogar",112,0,11,26.0948,-98.2772,"Hogar Reunión","UT_DENSIDAD","TRAIN","Calle Juan Aldama, Reynosa, Tamaulipas, 88500, México","88500","Tamaulipas"
1033,2,"C","Hogar",134.13,0,12,26.02971,-98.28762,"Hogar Reunión","UT_DENSIDAD","TRAIN","Oxxo, Avenida Las Torres, Reynosa, Tamaulipas, 88500, México","88500","Tamaulipas"
906,2,"CD","Hogar",80.4,8,5,26.08238,-98.32488,"Hogar Reunión","UT_DENSIDAD","TRAIN","Calle Tulipán, Reynosa, Tamaulipas, 88500, México","88500","Tamaulipas"
895,2,"C","Hogar",127.87,10,10,26.07196,-98.3496,"Hogar Reunión","UT_DENSIDAD","TRAIN","Calle Everest, Reynosa, Tamaulipas, 88500, México","88500","Tamaulipas"
896,2,"CD","Hogar",88.38,12,10,26.03921,-98.351,"Hogar Reunión","UT_DENSIDAD","TRAIN","Oxxo, Avenida Las Lomas, Reynosa, Tamaulipas, 88500, México","88500","Tamaulipas"
897,2,"C","Hogar",127,10,11,26.05115,-98.34874,"Hogar Reunión","UT_DENSIDAD","TRAIN","Oxxo, Calle Gardenia, Reynosa, Tamaulipas, 88500, México","88500","Tamaulipas"
898,2,"C","Hogar",94,8,7,26.05933,-98.30631,"Hogar Reunión","UT_GAS_URBANA","TRAIN","Las Torres, Reynosa, Tamaulipas, 88500, México","88500","Tamaulipas"
899,2,"BC","Receso",98.95,12,12,26.07745,-98.28304,"Parada Técnica","UT_TRAFICO_VEHICULAR","TRAIN","Calle Tamaulipas, Reynosa, Tamaulipas, 88500, México","88500","Tamaulipas"
901,2,"C","Hogar",96.74,10,10,26.05283,-98.29934,"Hogar Reunión","UT_TRAFICO_VEHICULAR","TRAIN","Avenida Rodolfo Garza Cantú, Reynosa, Tamaulipas, 88500, México","88500","Tamaulipas"
902,2,"CD","Hogar",105,10,8,26.06042,-98.31307,"Hogar Reunión","UT_DENSIDAD","TRAIN","Calle Sierra Leona, Reynosa, Tamaulipas, 88500, México","88500","Tamaulipas"
903,2,"C","Receso",96.4,9,10,26.06081,-98.29796,"Parada Técnica","UT_DENSIDAD","TRAIN","Avenida Rodolfo Garza Cantú, Reynosa, Tamaulipas, 88500, México","88500","Tamaulipas"
904,2,"C","Hogar",102.4,9,7,26.18754,-98.46751,"Parada Técnica","UT_CARRETERA_GAS","TRAIN","Pemex, Carretera Nuevo Laredo- Reynosa, La Cuchilla (Los Miranda), Valadeces, Reynosa, Tamaulipas, México",NA,"Tamaulipas"
905,2,"CD","Hogar",96.4,10,7,26.02988,-98.23728,"Hogar Reunión","UT_DENSIDAD","TRAIN","Calle 20 de Noviembre, Reynosa, Tamaulipas, 88500, México","88500","Tamaulipas"
894,2,"C","Hogar",95.08,10,6,26.06298,-98.33505,"Hogar Reunión","UT_DENSIDAD","TRAIN","Calle Bella Vista, Reynosa, Tamaulipas, 88500, México","88500","Tamaulipas"
907,2,"C","Hogar",104.2,10,10,26.05555,-98.34134,"Hogar Reunión","UT_DENSIDAD","TRAIN","Oxxo, Calle Campeche, Reynosa, Tamaulipas, 88500, México","88500","Tamaulipas"
908,2,"CD","Hogar",105.1,10,13,26.04733,-98.29975,"Hogar Reunión","UT_TRAFICO_VEHICULAR","TRAIN","Calle Tercera, Reynosa, Tamaulipas, 88500, México","88500","Tamaulipas"
909,2,"C","Hogar",95,7,6,26.05964,-98.30874,"Hogar Reunión","UT_DENSIDAD","TRAIN","Calle Cerro Azul, Reynosa, Tamaulipas, 88500, México","88500","Tamaulipas"
911,2,"CD","Hogar",123.4,10,5,26.01801,-98.24324,"Hogar Reunión","UT_DENSIDAD","TRAIN","Calle Ágatha, Reynosa, Tamaulipas, 88500, México","88500","Tamaulipas"
912,2,"C","Hogar",108,10,8,26.0085,-98.24256,"Hogar Reunión","UT_DENSIDAD","TRAIN","Avenida Punta Diamante, Reynosa, Tamaulipas, 88500, México","88500","Tamaulipas"
913,2,"C","Hogar",98.36,10,10,26.05574,-98.28835,"Hogar Reunión","UT_DENSIDAD","TRAIN","Oxxo, Calle Primaveras, Reynosa, Tamaulipas, 88500, México","88500","Tamaulipas"
914,2,"B","Receso",112.3,10,10,26.04321,-97.95335,"Parada Técnica","UT_GAS_URBANA","TRAIN","Avenida Licenciado Benito Juárez, Nuevo Progreso, Río Bravo, Tamaulipas, México",NA,"Tamaulipas"
915,2,"C","Hogar",105.74,10,10,26.07616,-98.28808,"Parada Técnica","UT_TRAFICO_VEHICULAR","TRAIN","Calle Culiacán, Reynosa, Tamaulipas, 88500, México","88500","Tamaulipas"
916,2,"C","Receso",92,10,6,26.05247,-97.95191,"Parada Técnica","UT_DENSIDAD","TRAIN","Avenida Licenciado Benito Juárez, Nuevo Progreso, Río Bravo, Tamaulipas, México",NA,"Tamaulipas"
917,2,"C","Hogar",214.2,10,14,26.06344,-98.37474,"Hogar Reunión","UT_DENSIDAD","TRAIN","Calle de los Robles, Reynosa, Tamaulipas, 88500, México","88500","Tamaulipas"
883,2,"C","Receso",103.3,10,8,26.0646,-98.2845,"Clásico","UT_GAS_URBANA","TRAIN","Oxxo, Boulevard General Álvaro Obregón, Reynosa, Tamaulipas, 88500, México","88500","Tamaulipas"
865,2,"C","Hogar",0,0,0,26.00448,-98.25235,"Hogar Reunión","UT_DENSIDAD","TRAIN","Boulevard Villas de Esmeralda, Reynosa, Tamaulipas, 88500, México","88500","Tamaulipas"
866,2,"C","Receso",0,0,0,26.03853,-98.30021,"Parada Técnica","UT_TRAFICO_VEHICULAR","TRAIN","Avenida Rodolfo Garza Cantú, Reynosa, Tamaulipas, 88500, México","88500","Tamaulipas"
875,2,"BC","Receso",107.7,10,12,26.0857,-98.29232,"Parada Técnica","UT_TRAFICO_VEHICULAR","TRAIN","Boulevard Miguel Hidalgo y Costilla, Reynosa, Tamaulipas, 88500, México","88500","Tamaulipas"
876,2,"BC","Hogar",126,10,10,26.08091,-98.27484,"Clásico","UT_TRAFICO_VEHICULAR","TRAIN","Calle Havre, Reynosa, Tamaulipas, 88500, México","88500","Tamaulipas"
877,2,"CD","Receso",191.2,10,10,26.03791,-98.36191,"Hogar Reunión","UT_DENSIDAD","TRAIN","Avenida Las Lomas, Reynosa, Tamaulipas, 88500, México","88500","Tamaulipas"
2,2,"C","Hogar",0,0,0,26.04198,-98.3562,"Hogar Reunión","UT_DENSIDAD","TRAIN","Oxxo, Calle Loma Dorada, Reynosa, Tamaulipas, 88500, México","88500","Tamaulipas"
879,2,"C","Receso",110,10,10,26.09214,-98.2756,"Oficinistas","UT_TRAFICO_PEATONAL","TRAIN","Calle José María Morelos, Reynosa, Tamaulipas, 88500, México","88500","Tamaulipas"
881,2,"B","Hogar",130,10,10,26.07699,-98.277,"Oficinistas","UT_TRAFICO_VEHICULAR","TRAIN","Boulevard General Lázaro Cárdenas, Reynosa, Tamaulipas, 88500, México","88500","Tamaulipas"
882,2,"B","Receso",110,10,10,26.0883,-98.27013,"Clásico","UT_DENSIDAD","TRAIN","Calle Licenciado Emilio Portes Gil, Reynosa, Tamaulipas, 88500, México","88500","Tamaulipas"
918,2,"C","Hogar",111.75,10,10,26.07442,-98.30989,"Hogar Reunión","UT_DENSIDAD","TRAIN","Calle Padre Soler, Reynosa, Tamaulipas, 88500, México","88500","Tamaulipas"
884,2,"C","Base",122.54,8,12,26.0896,-98.27616,"Oficinistas","UT_TRAFICO_PEATONAL","TRAIN","Calle General Servando Canales, Reynosa, Tamaulipas, 88500, México","88500","Tamaulipas"
885,2,"B","Receso",110.15,10,9,25.98226,-98.09069,"Oficinistas","UT_TRAFICO_PEATONAL","TRAIN","Calle Las Palmas, Río Bravo, Tamaulipas, 88900, México","88900","Tamaulipas"
886,2,"BC","Base",94.3,10,9,26.06934,-98.29477,"Clásico","UT_TRAFICO_VEHICULAR","TRAIN","Calle Rosalinda Guerrero, Reynosa, Tamaulipas, 88500, México","88500","Tamaulipas"
887,2,"C","Receso",188.99,0,11,26.05794,-98.29427,"Oficinistas","UT_TRAFICO_VEHICULAR","TRAIN","Oxxo, Calle General Álvaro Obregón, Reynosa, Tamaulipas, 88500, México","88500","Tamaulipas"
888,2,"C","Hogar",121,10,14,26.06334,-98.28745,"Hogar Reunión","UT_TRAFICO_VEHICULAR","TRAIN","Boulevard Alvaro Obregon, Reynosa, Tamaulipas, 88500, México","88500","Tamaulipas"
889,2,"BC","Hogar",133,10,14,26.07191,-98.27563,"Hogar Reunión","UT_DENSIDAD","TRAIN","Boulevard Poza Rica, Reynosa, Tamaulipas, 88500, México","88500","Tamaulipas"
891,2,"C","Hogar",113.17,12,6,25.97946,-98.06868,"Hogar Reunión","UT_GAS_URBANA","TRAIN","Gasolinera 01, Avenida Francisco I. Madero, Río Bravo, Tamaulipas, 88900, México","88900","Tamaulipas"
892,2,"C","Hogar",110,10,10,26.0774,-98.29348,"Hogar Reunión","UT_DENSIDAD","TRAIN","Calle Insurgentes, Reynosa, Tamaulipas, 88500, México","88500","Tamaulipas"
893,2,"BC","Hogar",124.68,10,11,26.08725,-98.30295,"Hogar Reunión","UT_TRAFICO_VEHICULAR","TRAIN","Calle Manuel Barragán, Reynosa, Tamaulipas, 88500, México","88500","Tamaulipas"
953,2,"C","Hogar",98,10,10,26.08276,-98.28998,"Hogar Reunión","UT_DENSIDAD","TRAIN","Calle Río Frío, Reynosa, Tamaulipas, 88500, México","88500","Tamaulipas"
942,2,"C","Receso",130,12,9,25.9883,-98.11208,"Parada Técnica","UT_GAS_URBANA","TRAIN","Oxxo, Avenida Francisco I. Madero, Río Bravo, Tamaulipas, 88950, México","88950","Tamaulipas"
943,2,"C","Hogar",115,12,10,26.05403,-98.38253,"Hogar Reunión","UT_DENSIDAD","TRAIN","Calle del Valle, Reynosa, Tamaulipas, 88500, México","88500","Tamaulipas"
944,2,"C","Hogar",120,10,10,25.99662,-98.06202,"Hogar Reunión","UT_DENSIDAD","TRAIN","Calle República Mexicana, Río Bravo, Tamaulipas, 88920, México","88920","Tamaulipas"
945,2,"C","Hogar",130,12,14,25.98966,-98.08214,"Hogar Reunión","UT_DENSIDAD","TRAIN","Calle Coahuila, Río Bravo, Tamaulipas, 88900, México","88900","Tamaulipas"
946,2,"C","Hogar",146,10,12,26.03574,-98.39134,"Hogar Reunión","UT_DENSIDAD","TRAIN","Circuito Hacienda del Pinto, Reynosa, Tamaulipas, 88730, México","88730","Tamaulipas"
947,2,"C","Hogar",112,10,11,26.0662,-98.267,"Hogar Reunión","UT_DENSIDAD","TRAIN","Boulevard Espuelas del Ferrocarril, Reynosa, Tamaulipas, 88500, México","88500","Tamaulipas"
948,2,"C","Hogar",117,11,11,26.05154,-98.41472,"Hogar Reunión","UT_DENSIDAD","TRAIN","Oxxo, Calle Paseo de los Fresnos, Fracc. Loma Real, Reynosa, Tamaulipas, 88715, México","88715","Tamaulipas"
949,2,"C","Receso",107,10,10,26.06029,-98.24792,"Hogar Reunión","UT_GAS_URBANA","TRAIN","Reynosa, Tamaulipas, 88500, México","88500","Tamaulipas"
951,2,"C","Receso",130,12,6,26.08338,-98.30352,"Oficinistas","UT_TRAFICO_PEATONAL","TRAIN","Avenida Doctor José Zertuche Ibarra, Reynosa, Tamaulipas, 88500, México","88500","Tamaulipas"
952,2,"C","Receso",130,10,10,26.04772,-98.30035,"Hogar Reunión","UT_GAS_URBANA","TRAIN","Pemex, Avenida Rodolfo Garza Cantú, Reynosa, Tamaulipas, 88500, México","88500","Tamaulipas"
941,2,"C","Hogar",122,11,10,26.00379,-98.25312,"Hogar Reunión","UT_DENSIDAD","TRAIN","Calle Everest, Reynosa, Tamaulipas, 88500, México","88500","Tamaulipas"
954,2,"C","Hogar",116.25,0,10,26.06715,-98.32452,"Hogar Reunión","UT_DENSIDAD","TRAIN","Calle Oriente Dos, Reynosa, Tamaulipas, 88500, México","88500","Tamaulipas"
955,2,"C","Hogar",117,11,12,26.00686,-98.06271,"Barrio Competido","UT_DENSIDAD","TRAIN","Calle Océano Atlántico, Río Bravo, Tamaulipas, 88923, México","88923","Tamaulipas"
956,2,"C","Receso",121,10,10,25.98349,-98.08468,"Hogar Reunión","UT_DENSIDAD","TRAIN","Calle Vicente Guerrero, Río Bravo, Tamaulipas, 88900, México","88900","Tamaulipas"
957,2,"C","Hogar",145,10,13,26.03575,-98.3799,"Hogar Reunión","UT_DENSIDAD","TRAIN","Oxxo, Calle Revolución, Reynosa, Tamaulipas, 88500, México","88500","Tamaulipas"
958,2,"CD","Receso",125,10,12,25.99809,-98.08917,"Parada Técnica","UT_DENSIDAD","TRAIN","Oxxo, Calle Almendro, Río Bravo, Tamaulipas, 88900, México","88900","Tamaulipas"
959,2,"B","Receso",118,11,11,26.06102,-98.29517,"Clásico","UT_TRAFICO_VEHICULAR","TRAIN","Calle 5 de febrero, Reynosa, Tamaulipas, 88500, México","88500","Tamaulipas"
961,2,"C","Receso",109,11,10,26.23095,-98.66727,"Parada Técnica","UT_CARRETERA_GAS","TRAIN","Carretera Nuevo Laredo- Reynosa, La Cuchilla (Los Miranda), Valadeces, Gustavo Díaz Ordaz, Tamaulipas, México",NA,"Tamaulipas"
962,2,"C","Hogar",136,10,12,26.02219,-98.27036,"Hogar Reunión","UT_DENSIDAD","TRAIN","Calle Enrique Canseco, Reynosa, Tamaulipas, 88500, México","88500","Tamaulipas"
963,2,"C","Receso",132,11,12,26.06109,-98.35409,"Hogar Reunión","UT_DENSIDAD","TRAIN","Calle Israel, Reynosa, Tamaulipas, 88500, México","88500","Tamaulipas"
919,2,"BC","Hogar",100,10,10,26.05088,-98.32233,"Hogar Reunión","UT_DENSIDAD","TRAIN","Blvrd las fuentes, Reynosa, Tamaulipas, 88500, México","88500","Tamaulipas"
921,2,"C","Receso",132,10,12,26.00836,-98.20679,"Parada Técnica","UT_GAS_URBANA","TRAIN","Oxxo, Autopista Matamoros-Reynosa, Reynosa, Tamaulipas, 88500, México","88500","Tamaulipas"
922,2,"C","Hogar",143.18,13,12,26.0662,-98.34108,"Hogar Reunión","UT_TRAFICO_VEHICULAR","TRAIN","Avenida San José, Reynosa, Tamaulipas, 88500, México","88500","Tamaulipas"
923,2,"C","Receso",96.36,12,10,26.08281,-98.28388,"Oficinistas","UT_DENSIDAD","TRAIN","Calle Michoacán, Reynosa, Tamaulipas, 88500, México","88500","Tamaulipas"
924,2,"C","Hogar",105.26,12,10,26.06088,-98.28161,"Hogar Reunión","UT_DENSIDAD","TRAIN","Calle Manuel María Ponce, Reynosa, Tamaulipas, 88500, México","88500","Tamaulipas"
925,2,"A","Hogar",77.05,10,8,26.05698,-98.31215,"Hogar Reunión","UT_DENSIDAD","TRAIN","Calle Independencia, Reynosa, Tamaulipas, 88500, México","88500","Tamaulipas"
926,2,"C","Receso",117.23,10,10,26.0284,-98.43882,"Parada Técnica","UT_CARRETERA_GAS","TRAIN","Oxxo, Autopista Reynosa-Monterrey, El Álamo, Reynosa, Tamaulipas, 88733, México","88733","Tamaulipas"
927,2,"C","Receso",135.13,12,12,25.92283,-98.26913,"Parada Técnica","UT_CARRETERA_GAS","TRAIN","Oxxo, Carretera Reynosa-San Fernando, Reynosa, Tamaulipas, México",NA,"Tamaulipas"
928,2,"BC","Receso",112,12,4,26.39945,-99.02597,"Oficinistas","UT_TRAFICO_PEATONAL","TRAIN","Calle Séptima, Miguel Alemán, Tamaulipas, México",NA,"Tamaulipas"
929,2,"C","Hogar",83.07,10,10,25.99169,-98.07486,"Hogar Reunión","UT_DENSIDAD","TRAIN","Oxxo, Calle Naranjo, Río Bravo, Tamaulipas, 88920, México","88920","Tamaulipas"
931,2,"C","Hogar",114,14,12,26.04801,-98.37562,"Hogar Reunión","UT_DENSIDAD","TRAIN","Oxxo, Calle Irlanda, Reynosa, Tamaulipas, 88500, México","88500","Tamaulipas"
932,2,"C","Receso",161.93,14,15,26.38915,-99.0183,"Clásico","UT_CARRETERA_GAS","TRAIN","Pemex, Calle Manuel Cavazos Lerma, Miguel Alemán, Tamaulipas, México",NA,"Tamaulipas"
933,2,"C","Hogar",124,11,10,26.06831,-98.305,"Hogar Reunión","UT_DENSIDAD","TRAIN","Calle San Carlos, Reynosa, Tamaulipas, 88500, México","88500","Tamaulipas"
934,2,"C","Hogar",89.4,10,10,26.05878,-98.29961,"Hogar Reunión","UT_TRAFICO_VEHICULAR","TRAIN","Calle Heriberto Deándar Amador, Reynosa, Tamaulipas, 88500, México","88500","Tamaulipas"
935,2,"C","Hogar",152,13,12,25.99116,-98.09066,"Hogar Reunión","UT_DENSIDAD","TRAIN","Oxxo, Calle Yucatán, Río Bravo, Tamaulipas, 88900, México","88900","Tamaulipas"
936,2,"C","Receso",110,12,10,26.08377,-98.30029,"Clásico","UT_TRAFICO_VEHICULAR","TRAIN","Calle Fresno, Reynosa, Tamaulipas, 88500, México","88500","Tamaulipas"
937,2,"C","Base",75,6,3,26.23352,-98.59779,"Hogar Reunión","UT_GAS_URBANA","TRAIN","Gustavo Díaz Ordaz, Tamaulipas, México",NA,"Tamaulipas"
938,2,"C","Base",132,12,10,26.39773,-99.03788,"Hogar Reunión","UT_GAS_URBANA","TRAIN","Oxxo, Calle Puerto Chetumal, Miguel Alemán, Tamaulipas, México",NA,"Tamaulipas"
939,2,"C","Receso",131.5,12,12,26.02647,-98.44417,"Parada Técnica","UT_CARRETERA_GAS","TRAIN","Banorte, Autopista Reynosa-Monterrey, El Álamo, Reynosa, Tamaulipas, 88733, México","88733","Tamaulipas"
1,2,"C","Hogar",0,0,0,26.00177,-98.24284,"Hogar Reunión","UT_DENSIDAD","TRAIN","Boulevard Villas de Esmeralda, Reynosa, Tamaulipas, 88500, México","88500","Tamaulipas"
19,2,"C","Hogar",0,0,0,25.9944,-98.11901,"Hogar Reunión","UT_DENSIDAD","TRAIN","Calle Brecha 108, Río Bravo, Tamaulipas, 88950, México","88950","Tamaulipas"
18,2,"C","Hogar",0,0,0,26.05197,-98.28736,"Hogar Reunión","UT_DENSIDAD","TRAIN","Calle Adolfo López Mateos, Reynosa, Tamaulipas, 88500, México","88500","Tamaulipas"
17,2,"C","Base",0,0,0,26.05687,-98.36383,"Parada Técnica","UT_TRAFICO_VEHICULAR","TRAIN","BH Business, Calle Los Encinos, Reynosa, Tamaulipas, 88500, México","88500","Tamaulipas"
16,2,"C","Hogar",0,0,0,26.02393,-98.34394,"Hogar Reunión","UT_DENSIDAD","TRAIN","Reynosa, Tamaulipas, 88500, México","88500","Tamaulipas"
15,2,"C","Receso",0,0,0,26.04645,-98.32298,"Hogar Reunión","UT_CARRETERA_GAS","TRAIN","Calle Libramiento Monterrey, Reynosa, Tamaulipas, 88500, México","88500","Tamaulipas"
14,2,"C","Receso",0,0,0,26.21178,-98.5901,"Parada Técnica","UT_CARRETERA_GAS","TRAIN","Pemex, Carretera Nuevo Laredo- Reynosa, La Cuchilla (Los Miranda), Valadeces, Gustavo Díaz Ordaz, Tamaulipas, México",NA,"Tamaulipas"
13,2,"C","Base",0,0,0,25.98686,-98.09433,"Oficinistas","UT_TRAFICO_VEHICULAR","TRAIN","Oxxo, Avenida Francisco I. Madero, Río Bravo, Tamaulipas, 88950, México","88950","Tamaulipas"
12,2,"C","Hogar",0,0,0,25.99668,-98.26116,"Hogar Reunión","UT_DENSIDAD","TRAIN","Reynosa, Tamaulipas, 88500, México","88500","Tamaulipas"
11,2,"C","Hogar",0,0,0,26.00828,-98.40705,"Hogar Reunión","UT_DENSIDAD","TRAIN","Calle Flor de Pensamiento, Itavu, Reynosa, Tamaulipas, 88733, México","88733","Tamaulipas"
8,2,"C","Base",0,0,0,26.04768,-98.2894,"Hogar Reunión","UT_TRAFICO_VEHICULAR","TRAIN","Reynosa, Tamaulipas, 88500, México","88500","Tamaulipas"
3,2,"C","Hogar",0,0,0,26.02464,-98.26098,"Hogar Reunión","UT_DENSIDAD","TRAIN","Calle Carlos Salinas de Gortari, Reynosa, Tamaulipas, 88500, México","88500","Tamaulipas"
4,2,"A","Hogar",0,0,0,26.04326,-98.23851,"Hogar Reunión","UT_DENSIDAD","TRAIN","Calle Guanajuato, Reynosa, Tamaulipas, 88500, México","88500","Tamaulipas"
5,2,"C","Hogar",0,0,0,26.06397,-98.26165,"Hogar Reunión","UT_DENSIDAD","TRAIN","Calle Lucía, Reynosa, Tamaulipas, 88500, México","88500","Tamaulipas"
7,2,"C","Hogar",0,0,0,26.08957,-98.33238,"Hogar Reunión","UT_DENSIDAD","TRAIN","Calle Washington, Reynosa, Tamaulipas, 88500, México","88500","Tamaulipas"
9,2,"C","Hogar",0,0,0,26.01405,-98.39384,"Hogar Reunión","UT_DENSIDAD","TRAIN","Avenida Vía México, Nuevo México, Reynosa, Tamaulipas, 88733, México","88733","Tamaulipas"
6,2,"C","Hogar",0,0,0,26.02745,-98.35609,"Hogar Reunión","UT_DENSIDAD","TRAIN","Oxxo, Calle Victoria, Reynosa, Tamaulipas, 88500, México","88500","Tamaulipas"
236,3,"B","Hogar",130,12,0,25.60325,-100.25761,"Hogar Reunión","UT_DENSIDAD","TRAIN","Pedregal de La Laguna, Pedregal La Silla, Monterrey, Nuevo León, 64978, México","64978","Nuevo León"
345,3,"A","Hogar",97.5,10,7,25.64527,-100.37938,"Clásico","UT_TRAFICO_VEHICULAR","TRAIN","Avenida Alfonso Reyes, Lomas del Valle, San Pedro Garza García, Nuevo León, 66220, México","66220","Nuevo León"
204,3,"AB","Base",122.4,12,0,25.65211,-100.37786,"Oficinistas","UT_TRAFICO_VEHICULAR","TRAIN","Avenida José Vasconcelos, San Pedro Garza García, Nuevo León, 66220, México","66220","Nuevo León"
214,3,"BC","Receso",127.36,11,0,25.66708,-100.2804,"Oficinistas","UT_GAS_URBANA","TRAIN","Oxxo, 12, Buenos Aires, Monterrey, Nuevo León, 64800, México","64800","Nuevo León"
846,3,"B","Hogar",85.22,10,0,25.65985,-100.34713,"Oficinistas","UT_DENSIDAD","TRAIN","Río Amacuzac, Del Valle, San Pedro Garza García, Nuevo León, 66267, México","66267","Nuevo León"
841,3,"B","Hogar",0,0,0,25.58732,-100.27536,"Hogar Reunión","UT_DENSIDAD","TRAIN","Camino Al Diente, Aurea, Monterrey, Nuevo León, 64978, México","64978","Nuevo León"
221,3,"AB","Receso",168.4,12,0,25.65854,-100.35639,"Oficinistas","UT_TRAFICO_VEHICULAR","TRAIN","488, Calle Río Guadalquivir, Del Valle, San Pedro Garza García, Nuevo León, 66266, México","66266","Nuevo León"
222,3,"AB","Receso",112,9,0,25.6544,-100.29456,"Oficinistas","UT_DENSIDAD","TRAIN","Roma, Monterrey, Nuevo León, 64700, México","64700","Nuevo León"
827,3,"B","Base",0,0,0,25.52392,-100.20669,"Hogar Reunión","UT_TRAFICO_VEHICULAR","TRAIN","MEX 85, Monterrey, Nuevo León, 64102, México","64102","Nuevo León"
234,3,"A","Receso",111.14,12,0,25.65389,-100.34217,"Parada Técnica","UT_DENSIDAD","TRAIN","415, Calle Montes Rocallosos, Residencial San Agustin, San Pedro Garza García, Nuevo León, 66260, México","66260","Nuevo León"
246,3,"B","Base",100.57,14,0,25.64233,-100.27841,"Clásico","UT_TRAFICO_VEHICULAR","TRAIN","269, Avenida Alfonso Reyes, Contry Tesoro, Monterrey, Nuevo León, 64859, México","64859","Nuevo León"
167,3,"BC","Hogar",0,8,0,25.64782,-100.27427,"Clásico","UT_GAS_URBANA","TRAIN","Bahía de Las Islas, Bahía de la Primavera, Monterrey, Nuevo León, 64830, México","64830","Nuevo León"
237,3,"B","Hogar",127.64,12,0,25.64791,-100.29759,"Clásico","UT_DENSIDAD","TRAIN","María Curie, Roma, Monterrey, Nuevo León, 64700, México","64700","Nuevo León"
804,3,"B","Hogar",0,0,0,25.54712,-100.23021,"Hogar Reunión","UT_DENSIDAD","TRAIN","Del Acueducto, Carolco, Monterrey, Nuevo León, 64985, México","64985","Nuevo León"
243,3,"AB","Receso",149.7,11,0,25.63751,-100.31216,"Parada Técnica","UT_GAS_URBANA","TRAIN","Oxxo, Avenida Adolfo Laubner, Valle Oriente, Monterrey, Nuevo León, 64750, México","64750","Nuevo León"
242,3,"BC","Receso",0,8,0,25.65538,-100.29421,"Oficinistas","UT_GAS_URBANA","TRAIN","Oxxo, Calle Pirineos, Monterrey, Nuevo León, 64700, México","64700","Nuevo León"
241,3,"BC","Receso",97.31,10,0,25.67252,-100.35968,"Oficinistas","UT_TRAFICO_VEHICULAR","TRAIN","3008, Avenida Doctor Ignacio Morones Prieto, Del Carmen, Monterrey, Nuevo León, 64640, México","64640","Nuevo León"
178,3,"AB","Base",103.6,11,0,25.66035,-100.38279,"Oficinistas","UT_TRAFICO_VEHICULAR","TRAIN","Oxxo, Avenida Humberto Lobo, San Pedro Garza García, Nuevo León, 66200, México","66200","Nuevo León"
207,3,"AB","Base",93.6,10,0,25.65248,-100.36226,"Oficinistas","UT_TRAFICO_VEHICULAR","TRAIN","Avenida José Vasconcelos, Del Valle, San Pedro Garza García, Nuevo León, 66268, México","66268","Nuevo León"
169,3,"AB","Base",119.3,10,0,25.65122,-100.33959,"Oficinistas","UT_DENSIDAD","TRAIN","Avenida Real San Agustín, Residencial San Agustin, San Pedro Garza García, Nuevo León, 66260, México","66260","Nuevo León"
171,3,"AB","Hogar",110.1,10,0,25.66523,-100.34199,"Clásico","UT_TRAFICO_PEATONAL","TRAIN","Calle Loma Florida, Loma Larga, Monterrey, Nuevo León, 64710, México","64710","Nuevo León"
173,3,"AB","Hogar",99,8,0,25.6217,-100.29776,"Hogar Reunión","UT_DENSIDAD","TRAIN","3208, Avenida Paseo del Acueducto, Del Paseo, Monterrey, Nuevo León, 64790, México","64790","Nuevo León"
174,3,"AB","Hogar",0,12,0,25.62244,-100.28191,"Hogar Reunión","UT_DENSIDAD","TRAIN","4012, Boulevard Acapulco, Las Brisas, Monterrey, Nuevo León, 64790, México","64790","Nuevo León"
175,3,"BC","Base",136,12,0,25.64811,-100.32974,"Parada Técnica","UT_GAS_URBANA","TRAIN","Pemex, Avenida Lázaro Cárdenas, Valle Oriente, San Pedro Garza García, Nuevo León, 66269, México","66269","Nuevo León"
176,3,"AB","Hogar",0,10,0,25.63944,-100.27006,"Clásico","UT_TRAFICO_PEATONAL","TRAIN","Río La Silla, Villa del Rio, Monterrey, Nuevo León, 64850, México","64850","Nuevo León"
177,3,"BC","Base",0,12,0,25.64667,-100.29488,"Clásico","UT_DENSIDAD","TRAIN","Oxxo, Avenida Río Pánuco, Monterrey, Nuevo León, 64840, México","64840","Nuevo León"
507,3,"C","Hogar",107.8,13,9,25.65665,-100.26909,"Hogar Reunión","UT_DENSIDAD","TRAIN","2134, Calle Licenciado José López Portillo, 25 de Noviembre, Guadalupe, Nuevo León, 67140, México","67140","Nuevo León"
179,3,"AB","Hogar",0,11,0,25.60124,-100.26406,"Clásico","UT_DENSIDAD","TRAIN","Oxxo, Lago Erie, Lagos del Bosque, Monterrey, Nuevo León, 64978, México","64978","Nuevo León"
181,3,"AB","Hogar",105.65,12,10,25.6296,-100.27825,"Clásico","UT_TRAFICO_VEHICULAR","TRAIN","Sagitario, Contry, Monterrey, Nuevo León, 64860, México","64860","Nuevo León"
184,3,"AB","Hogar",0,11,0,25.62076,-100.28546,"Clásico","UT_DENSIDAD","TRAIN","Paseo de Granada, Las Torres, Monterrey, Nuevo León, 64790, México","64790","Nuevo León"
185,3,"AB","Receso",106.96,12,6,25.66474,-100.38099,"Parada Técnica","UT_TRAFICO_VEHICULAR","TRAIN","Oxxo, 552, Calle Río Amazonas, Del Valle, San Pedro Garza García, Nuevo León, 66220, México","66220","Nuevo León"
349,3,"AB","Base",0,10,0,25.65609,-100.33998,"Parada Técnica","UT_DENSIDAD","TRAIN","Avenida Lázaro Cárdenas, San Pedro Garza García, Nuevo León, 66260, México","66260","Nuevo León"
504,3,"B","Hogar",0,13,0,25.62039,-100.28323,"Clásico","UT_TRAFICO_VEHICULAR","TRAIN","Lateral Avenida Lázaro Cárdenas, Monterrey, Nuevo León, 64790, México","64790","Nuevo León"
196,3,"BC","Receso",0,12,0,25.56563,-100.23929,"Parada Técnica","UT_CARRETERA_GAS","TRAIN","Carretera Nacional, Palmares, Monterrey, Nuevo León, 64984, México","64984","Nuevo León"
284,3,"C","Receso",124.6,18,0,25.53601,-100.21905,"Parada Técnica","UT_CARRETERA_GAS","TRAIN","Oxxo, A Gas 8599, Monterrey, Nuevo León, 64985, México","64985","Nuevo León"
725,3,"C","Hogar",0,0,0,25.66995,-100.27144,"Hogar Reunión","UT_DENSIDAD","TRAIN","1006, Florida, Paraiso, Guadalupe, Monterrey, Nuevo León, 67140, México","67140","Nuevo León"
316,3,"B","Base",98,9,0,25.65519,-100.35268,"Oficinistas","UT_TRAFICO_VEHICULAR","TRAIN","Avenida Ricardo Margáin Zozaya, Santa Engracia, San Pedro Garza García, Nuevo León, 66266, México","66266","Nuevo León"
271,3,"BC","Hogar",117.2,13,0,25.63876,-100.38256,"Clásico","UT_TRAFICO_VEHICULAR","TRAIN","Avenida Roberto Garza Sada, San Pedro Garza García, Nuevo León, 66268, México","66268","Nuevo León"
311,3,"C","Receso",101,10,0,25.59757,-100.26299,"Parada Técnica","UT_CARRETERA_GAS","TRAIN","Avenida Eugenio Garza Sada, Monterrey, Nuevo León, 64978, México","64978","Nuevo León"
604,3,"C","Hogar",0,13,0,25.62711,-100.28613,"Hogar Reunión","UT_DENSIDAD","TRAIN","3336, Puerto Castilla, Las Brisas, Monterrey, Nuevo León, 64790, México","64790","Nuevo León"
274,3,"C","Receso",105.3,14,0,25.56632,-100.23881,"Parada Técnica","UT_GAS_URBANA","TRAIN","Oxxo, A Gas 8522, Monterrey, Nuevo León, 64984, México","64984","Nuevo León"
276,3,"BC","Receso",109.82,17,0,25.66113,-100.39875,"Parada Técnica","UT_TRAFICO_VEHICULAR","TRAIN","Oxxo, Avenida José Vasconcelos, Casco Urbano, San Pedro Garza García, Nuevo León, 66239, México","66239","Nuevo León"
309,3,"B","Receso",77,14,0,25.65671,-100.36253,"Parada Técnica","UT_DENSIDAD","TRAIN","306, Calle Río Manzanares, Del Valle, San Pedro Garza García, Nuevo León, 66266, México","66266","Nuevo León"
308,3,"AB","Hogar",112.5,12,0,25.64252,-100.33347,"Clásico","UT_TRAFICO_VEHICULAR","TRAIN","Avenida Eugenio Garza Lagüera, Hacienda San Agustín, San Pedro Garza García, Nuevo León, 66278, México","66278","Nuevo León"
584,3,"C","Hogar",0,13,0,25.66242,-100.29553,"Hogar Reunión","UT_DENSIDAD","TRAIN","Calle 3a. Zona, Caracol, Monterrey, Nuevo León, 64820, México","64820","Nuevo León"
287,3,"AB","Base",105.34,17,0,25.58131,-100.25847,"Clásico","UT_DENSIDAD","TRAIN","Calle Rincón Valle Alto, Rincón de Valle Alto, Monterrey, Nuevo León, 64989, México","64989","Nuevo León"
656,3,"C","Base",0,0,0,25.66196,-100.31357,"Parada Técnica","UT_GAS_URBANA","TRAIN","Avenida Doctor Ignacio Morones Prieto, Monterrey, Nuevo León, 64000, México","64000","Nuevo León"
629,3,"C","Hogar",0,0,0,25.6821,-100.41138,"Hogar Reunión","UT_DENSIDAD","TRAIN","OXXO, Avenida General Emiliano Zapata, Unidad Habitacional Revolución, San Pedro Garza García, Nuevo León, 66216, México","66216","Nuevo León"
295,3,"C","Receso",108,16,0,25.65979,-100.39622,"Oficinistas","UT_TRAFICO_VEHICULAR","TRAIN","902, Avenida José Vasconcelos, Casco Urbano, San Pedro Garza García, Nuevo León, 66239, México","66239","Nuevo León"
303,3,"B","Base",88,12,0,25.65706,-100.38443,"Oficinistas","UT_TRAFICO_VEHICULAR","TRAIN","BreAd Panaderos Artesanales, 545A, Avenida Humberto Lobo, Del Valle, San Pedro Garza García, Nuevo León, 66220, México","66220","Nuevo León"
638,3,"C","Receso",0,0,0,25.66655,-100.27964,"Parada Técnica","UT_TRAFICO_VEHICULAR","TRAIN","Avenida Chapultepec, Buenos Aires, Monterrey, Nuevo León, 64800, México","64800","Nuevo León"
567,3,"B","Base",0,13,0,25.64856,-100.3572,"Parada Técnica","UT_TRAFICO_PEATONAL","TRAIN","407, Boulevard Botánica, Zona Montebello, San Pedro Garza García, Nuevo León, 66279, México","66279","Nuevo León"
553,3,"B","Base",0,13,0,25.62432,-100.29972,"Hogar Reunión","UT_TRAFICO_VEHICULAR","TRAIN","Avenida Fundadores, La República, Monterrey, Nuevo León, 64920, México","64920","Nuevo León"
554,3,"C","Receso",0,0,0,25.65033,-100.3553,"Oficinistas","UT_DENSIDAD","TRAIN","Avenida Roble, Valle de Campestre, San Pedro Garza García, Nuevo León, 66265, México","66265","Nuevo León"
774,3,"C","Receso",0,0,0,25.53083,-100.21282,"Hogar Reunión","UT_TRAFICO_VEHICULAR","TRAIN","Monterrey, Nuevo León, 64985, México","64985","Nuevo León"
251,3,"C","Receso",110.94,14,0,25.66742,-100.28471,"Parada Técnica","UT_TRAFICO_VEHICULAR","TRAIN","Hotel Boutique de Firma, 312, Avenida Revolución, Buenos Aires, Monterrey, Nuevo León, 64800, México","64800","Nuevo León"
252,3,"B","Receso",120.8,15,0,25.6321,-100.27243,"Oficinistas","UT_TRAFICO_VEHICULAR","TRAIN","Avenida Revolución, Contry, Monterrey, Nuevo León, 64860, México","64860","Nuevo León"
338,3,"C","Hogar",99,10,0,25.61578,-100.27783,"Clásico","UT_TRAFICO_VEHICULAR","TRAIN","Paseo de Granada, Las Torres, Monterrey, Nuevo León, 64930, México","64930","Nuevo León"
337,3,"C","Hogar",106,10,0,25.66014,-100.28657,"Hogar Reunión","UT_DENSIDAD","TRAIN","Oxxo, Calle Macario Pérez, Buenos Aires, Monterrey, Nuevo León, 64800, México","64800","Nuevo León"
336,3,"C","Base",105,10,0,25.63963,-100.28821,"Clásico","UT_TRAFICO_VEHICULAR","TRAIN","3411, Avenida Río Pánuco, Monterrey, Nuevo León, 64780, México","64780","Nuevo León"
341,3,"C","Base",81,10,0,25.66711,-100.29076,"Hogar Reunión","UT_TRAFICO_VEHICULAR","TRAIN","12, Buenos Aires, Monterrey, Nuevo León, 64820, México","64820","Nuevo León"
258,3,"CD","Hogar",101,12,0,25.58928,-100.25288,"Hogar Reunión","UT_DENSIDAD","TRAIN","Oxxo, Cañon del Huajuco, Monterrey, Nuevo León, 64988, México","64988","Nuevo León"
752,3,"B","Base",169.49,0,0,25.6614,-100.40051,"Barrio Competido","UT_TRAFICO_VEHICULAR","TRAIN","Tortas Bernal, 404, Avenida José Vasconcelos, Casco Urbano, San Pedro Garza García, Nuevo León, 66230, México","66230","Nuevo León"
333,3,"A","Hogar",124,10,0,25.57929,-100.2484,"Clásico","UT_DENSIDAD","TRAIN","Oxxo, Avenida la Rioja, La Rioja, Monterrey, Nuevo León, 64988, México","64988","Nuevo León"
577,3,"C","Base",0,13,0,25.5977,-100.25362,"Hogar Reunión","UT_DENSIDAD","TRAIN","Paseo de la Luz, Pedregal La Silla, Monterrey, Nuevo León, 64978, México","64978","Nuevo León"
261,3,"C","Base",112.38,11,0,25.66352,-100.40939,"Hogar Reunión","UT_DENSIDAD","TRAIN","Calle José Mariano Jiménez, San Pedro Garza García, Nuevo León, 67286, México","67286","Nuevo León"
262,3,"BC","Receso",122.83,14,0,25.65916,-100.36804,"Parada Técnica","UT_TRAFICO_PEATONAL","TRAIN","Calle Río Mississippi, Del Valle, San Pedro Garza García, Nuevo León, 66224, México","66224","Nuevo León"
331,3,"BC","Receso",74,10,0,25.67091,-100.39667,"Parada Técnica","UT_GAS_URBANA","TRAIN","Prodegas, Avenida Ignacio Morones Prieto, San Pedro Garza García, Nuevo León, 64660, México","64660","Nuevo León"
452,3,"C","Base",0,13,0,25.62589,-100.27324,"Clásico","UT_GAS_URBANA","TRAIN","Oxxo, Avenida Revolución, Monterrey, Nuevo León, 64860, México","64860","Nuevo León"
429,3,"C","Base",0,13,0,25.66419,-100.33111,"Oficinistas","UT_TRAFICO_VEHICULAR","TRAIN","Miguel Nieto, Nuevas Colonias, Monterrey, Nuevo León, 64070, México","64070","Nuevo León"
408,3,"C","Hogar",108.84,15,11,25.60873,-100.26883,"Hogar Reunión","UT_DENSIDAD","TRAIN","Sendero Encantado, Villa Las Fuentes, Monterrey, Nuevo León, 64960, México","64960","Nuevo León"
132,3,"BC","Hogar",107.67,11,10,25.64953,-100.384,"Oficinistas","UT_DENSIDAD","TRAIN","Oxxo, Calle Plutarco Elías Calles, San Pedro Garza García, Nuevo León, 66280, México","66280","Nuevo León"
413,3,"C","Base",92.17,11,5,25.62891,-100.29645,"Parada Técnica","UT_GAS_URBANA","TRAIN","Mobil, Lateral Avenida Lázaro Cárdenas, Las Brisas, Monterrey, Nuevo León, 64790, México","64790","Nuevo León"
435,3,"C","Hogar",87.28,13,0,25.65787,-100.40572,"Hogar Reunión","UT_DENSIDAD","TRAIN","704, Calle Licenciado Benito Juárez, Casco Urbano, San Pedro Garza García, Nuevo León, 66237, México","66237","Nuevo León"
442,3,"C","Hogar",0,13,0,25.65022,-100.2928,"Parada Técnica","UT_TRAFICO_PEATONAL","TRAIN","Calle Filósofos, Tecnológico, Monterrey, Nuevo León, 64840, México","64840","Nuevo León"
436,3,"BC","Hogar",0,13,0,25.54982,-100.22381,"Clásico","UT_TRAFICO_VEHICULAR","TRAIN","Calle Círculo, Monterrey, Nuevo León, 64985, México","64985","Nuevo León"
122,3,"AB","Base",0,12,0,25.60406,-100.2678,"Hogar Reunión","UT_DENSIDAD","TRAIN","Avenida Eugenio Garza Sada, Ciudad Satélite, Monterrey, Nuevo León, 64960, México","64960","Nuevo León"
121,3,"BC","Hogar",81.61,10,0,25.64548,-100.29303,"Clásico","UT_DENSIDAD","TRAIN","Alta Vista, Monterrey, Nuevo León, 64840, México","64840","Nuevo León"
414,3,"C","Hogar",96.49,12,5,25.57829,-100.24148,"Hogar Reunión","UT_TRAFICO_VEHICULAR","TRAIN","Oxxo, Sur Presidencia Municipal, La Estanzuela, Monterrey, Nuevo León, 64984, México","64984","Nuevo León"
443,3,"A","Hogar",0,13,0,25.65795,-100.43849,"Hogar Reunión","UT_DENSIDAD","TRAIN","Calle Arista, Santa Catarina, Nuevo León, 66197, México","66197","Nuevo León"
119,3,"BC","Hogar",0,12,0,25.65988,-100.29136,"Clásico","UT_DENSIDAD","TRAIN","Calle Pedro Ampudia, Residencial, Monterrey, Nuevo León, 64700, México","64700","Nuevo León"
424,3,"B","Hogar",110.5,12,4,25.6241,-100.29509,"Hogar Reunión","UT_DENSIDAD","TRAIN","Calle Cerro De La Silla, Mirador Residencial, Monterrey, Nuevo León, 64790, México","64790","Nuevo León"
375,3,"C","Base",82.99,10,10,25.58959,-100.24934,"Hogar Reunión","UT_GAS_URBANA","TRAIN","Oxxo, AVENIDA DE LA LUZ, Monterrey, Nuevo León, 64988, México","64988","Nuevo León"
118,3,"C","Hogar",112.38,10,0,25.608,-100.27007,"Clásico","UT_DENSIDAD","TRAIN","Avenida Eugenio Garza Sada, Ciudad Satélite, Monterrey, Nuevo León, 64960, México","64960","Nuevo León"
116,3,"BC","Hogar",71.5,10,0,25.65226,-100.2795,"Hogar Reunión","UT_DENSIDAD","TRAIN","Avenida Ricardo Covarrubias, Primavera, Monterrey, Nuevo León, 64830, México","64830","Nuevo León"
113,3,"AB","Hogar",105.58,12,6,25.6422,-100.27802,"Clásico","UT_TRAFICO_VEHICULAR","TRAIN","Oxxo, Privada Orión, Contry, Monterrey, Nuevo León, 64859, México","64859","Nuevo León"
419,3,"AB","Hogar",115.76,12,6,25.65289,-100.34605,"Oficinistas","UT_TRAFICO_VEHICULAR","TRAIN","Avenida San Agustín, Residencial San Agustin, San Pedro Garza García, Nuevo León, 66267, México","66267","Nuevo León"
165,3,"C","Base",0,13,0,25.65304,-100.28399,"Clásico","UT_GAS_URBANA","TRAIN","Avenida Ricardo Covarrubias, Residencial, Monterrey, Nuevo León, 64830, México","64830","Nuevo León"
367,3,"C","Receso",0,10,0,25.64841,-100.28547,"Clásico","UT_TRAFICO_VEHICULAR","TRAIN","Avenida Junco de la Vega, Monterrey, Nuevo León, 64840, México","64840","Nuevo León"
143,3,"BC","Hogar",0,9,0,25.62531,-100.29113,"Clásico","UT_DENSIDAD","TRAIN","Calle Paseo del Márquez, Las Brisas, Monterrey, Nuevo León, 64790, México","64790","Nuevo León"
161,3,"BC","Base",75.6,9,0,25.66865,-100.40311,"Oficinistas","UT_TRAFICO_VEHICULAR","TRAIN","Oxxo, Calle Rincón De La Huasteca, Rincón de Corregidora, San Pedro Garza García, Nuevo León, 67286, México","67286","Nuevo León"
159,3,"BC","Hogar",0,12,0,25.66725,-100.27725,"Hogar Reunión","UT_DENSIDAD","TRAIN","Molino 40, Buenos Aires, Monterrey, Nuevo León, 64800, México","64800","Nuevo León"
158,3,"AB","Hogar",0,12,0,25.64524,-100.27484,"Clásico","UT_TRAFICO_VEHICULAR","TRAIN","3592, Boulevard La Primavera, Primavera, Monterrey, Nuevo León, 64859, México","64859","Nuevo León"
157,3,"AB","Base",108,14,0,25.63502,-100.36374,"Parada Técnica","UT_TRAFICO_VEHICULAR","TRAIN","Avenida Valle de San Ángel, San Pedro Garza García, Nuevo León, 66279, México","66279","Nuevo León"
162,3,"CD","Base",126,10,0,25.6743,-100.40425,"Oficinistas","UT_GAS_URBANA","TRAIN","Oxxo, Boulevard Licenciado Gustavo Díaz Ordaz, San Pedro Garza García, Nuevo León, 66214, México","66214","Nuevo León"
154,3,"BC","Base",81.97,11,5,25.67178,-100.28287,"Oficinistas","UT_DENSIDAD","TRAIN","Gustavo M. Garcia, Fraccionamiento Buenos Aires, Monterrey, Nuevo León, 64800, México","64800","Nuevo León"
151,3,"AB","Hogar",0,12,0,25.62241,-100.28827,"Hogar Reunión","UT_DENSIDAD","TRAIN","Oxxo, Lateral Avenida Lázaro Cárdenas, Del Paseo, Monterrey, Nuevo León, 64790, México","64790","Nuevo León"
149,3,"AB","Base",0,13,0,25.60031,-100.26577,"Hogar Reunión","UT_DENSIDAD","TRAIN","Emilio Garza Meléndez, Monterrey, Nuevo León, 64978, México","64978","Nuevo León"
148,3,"AB","Base",90.06,12,0,25.62791,-100.36239,"Clásico","UT_DENSIDAD","TRAIN","Valle de San Angel Sect Frances, San Pedro Garza García, Nuevo León, 66279, México","66279","Nuevo León"
391,3,"BC","Base",70.85,8,3,25.65676,-100.38827,"Oficinistas","UT_TRAFICO_VEHICULAR","TRAIN","Oxxo, Calle Río Lys, Del Valle, San Pedro Garza García, Nuevo León, 66200, México","66200","Nuevo León"
147,3,"BC","Base",0,12,0,25.65384,-100.28962,"Oficinistas","UT_TRAFICO_PEATONAL","TRAIN","Oxxo, Avenida Junco de la Vega, Residencial, Monterrey, Nuevo León, 64700, México","64700","Nuevo León"
146,3,"A","Base",84.02,12,5,25.65478,-100.38306,"Oficinistas","UT_TRAFICO_VEHICULAR","TRAIN","Oxxo, Calle Río Támesis, Del Valle, San Pedro Garza García, Nuevo León, 66200, México","66200","Nuevo León"
472,3,"B","Receso",0,13,0,25.65847,-100.36536,"Parada Técnica","UT_TRAFICO_PEATONAL","TRAIN","317, Calle Río Tamazunchale, Del Valle, San Pedro Garza García, Nuevo León, 66224, México","66224","Nuevo León"
471,3,"B","Base",0,13,0,25.65677,-100.33659,"Parada Técnica","UT_DENSIDAD","TRAIN","417, San Alberto Oriente, San Pedro Garza García, Nuevo León, 66260, México","66260","Nuevo León"
139,3,"AB","Hogar",129.6,10,0,25.63525,-100.37125,"Clásico","UT_DENSIDAD","TRAIN","108, Avenida Roberto Garza Sada, Valle de San Ángel Sect Jardines, San Pedro Garza García, Nuevo León, 66279, México","66279","Nuevo León"
138,3,"AB","Receso",114.4,10,0,25.65744,-100.36574,"Oficinistas","UT_TRAFICO_VEHICULAR","TRAIN","240, Calle Río Tamazunchale, Del Valle, San Pedro Garza García, Nuevo León, 66224, México","66224","Nuevo León"
396,3,"AB","Receso",112.95,12,10,25.56043,-100.232,"Clásico","UT_TRAFICO_VEHICULAR","TRAIN","Avenida Portales del Huajuco, Monterrey, Nuevo León, 66542, México","66542","Nuevo León"
134,3,"AB","Receso",115.2,10,0,25.66256,-100.36801,"Oficinistas","UT_TRAFICO_VEHICULAR","TRAIN","Oxxo, Calle Río Missouri, Del Valle, San Pedro Garza García, Nuevo León, 66266, México","66266","Nuevo León"
445,3,"C","Base",0,13,0,25.65845,-100.28419,"Oficinistas","UT_TRAFICO_VEHICULAR","TRAIN","Calle Jesus Cantu Leal, Villa Estadio, Monterrey, Nuevo León, 64830, México","64830","Nuevo León"
133,3,"C","Receso",114.67,12,0,25.66034,-100.28202,"Clásico","UT_TRAFICO_VEHICULAR","TRAIN","Oxxo, Avenida José Alvarado, Jardin Español, Monterrey, Nuevo León, 64830, México","64830","Nuevo León"
444,3,"D","Hogar",0,13,0,25.5866,-100.24493,"Hogar Reunión","UT_DENSIDAD","TRAIN","Huajuco Sur, Colinas del Huajuco, Monterrey, Nuevo León, 64988, México","64988","Nuevo León"
692,4,"C","Hogar",0,0,0,25.64549,-100.15797,"Hogar Reunión","UT_DENSIDAD","TRAIN","Irak, Sinaí, Juárez, Nuevo León, 67199, México","67199","Nuevo León"
697,4,"C","Base",0,0,0,25.64114,-100.15849,"Hogar Reunión","UT_TRAFICO_VEHICULAR","TRAIN","Oxxo, Calle Hacienda San José, Villas de La Hacienda, Juárez, Nuevo León, 67199, México","67199","Nuevo León"
701,4,"C","Base",97.88,13,0,25.66395,-100.15029,"Hogar Reunión","UT_TRAFICO_VEHICULAR","TRAIN","Calle Profetas, Mision Santa Cruz, Guadalupe, Nuevo León, 67199, México","67199","Nuevo León"
695,4,"C","Hogar",0,0,0,25.64133,-100.06171,"Hogar Reunión","UT_DENSIDAD","TRAIN","Calle Elizama, Mirador San Antonio, Benito Juárez, Juárez, Nuevo León, 67262, México","67262","Nuevo León"
693,4,"C","Hogar",0,0,0,25.68688,-100.09822,"Parada Técnica","UT_DENSIDAD","TRAIN","Calle Mier, Lomas Anzures y Puertos 4, Juárez, Nuevo León, 67258, México","67258","Nuevo León"
52,4,"C","Base",104.08,12,6,25.65314,-100.1115,"Parada Técnica","UT_GAS_URBANA","TRAIN","Oxxo Gas, Avenida Licenciado Arturo B. De la Garza, Benito Juárez, Juárez, Nuevo León, 67255, México","67255","Nuevo León"
709,4,"C","Base",0,0,0,25.64914,-100.16257,"Parada Técnica","UT_GAS_URBANA","TRAIN","GoodPrice, Avenida Pablo Livas, Los Independientes, Guadalupe, Juárez, Nuevo León, 67199, México","67199","Nuevo León"
56,4,"D","Hogar",98.35,12,7,25.67128,-100.08602,"Hogar Reunión","UT_DENSIDAD","TRAIN","Calle Valencia, Praderas de San Juan, Benito Juárez, Juárez, Nuevo León, 67258, México","67258","Nuevo León"
711,4,"C","Hogar",97.84,13,0,25.68007,-100.16831,"Hogar Reunión","UT_DENSIDAD","TRAIN","Río Papaloapan, Dos Ríos, Guadalupe, Nuevo León, 67116, México","67116","Nuevo León"
712,4,"B","Base",0,0,0,25.63907,-100.14898,"Hogar Reunión","UT_TRAFICO_VEHICULAR","TRAIN","Avenida Profesor Eloy Cavazos, Juárez, Nuevo León, 67199, México","67199","Nuevo León"
267,4,"C","Base",118,12,13,25.67022,-100.18105,"Hogar Reunión","UT_DENSIDAD","TRAIN","Oxxo, Carretera a Reynosa, Guadalupe, Nuevo León, 67188, México","67188","Nuevo León"
717,4,"C","Hogar",110.99,14,0,25.637,-100.1251,"Hogar Reunión","UT_DENSIDAD","TRAIN","Calle Clavel, Héctor Caballero, La Paz, Juárez, Nuevo León, 67255, México","67255","Nuevo León"
727,4,"C","Hogar",0,0,0,25.64184,-100.10777,"Hogar Reunión","UT_DENSIDAD","TRAIN","Calle Fuente Gamada, Fuentes de Juárez, Benito Juárez, Juárez, Nuevo León, 67255, México","67255","Nuevo León"
728,4,"C","Hogar",94.59,13,0,25.66763,-100.18443,"Hogar Reunión","UT_DENSIDAD","TRAIN","Calle Enredadera, 3 Caminos, Guadalupe, Nuevo León, 67190, México","67190","Nuevo León"
264,4,"C","Base",117,13,9,25.68144,-100.16911,"Hogar Reunión","UT_DENSIDAD","TRAIN","Oxxo, Avenida Camino a las Escobas, Dos Ríos, Guadalupe, Nuevo León, 67116, México","67116","Nuevo León"
763,4,"C","Base",0,0,0,25.62994,-100.17502,"Hogar Reunión","UT_GAS_URBANA","TRAIN","Avenida Acueducto, Salvador Chávez Mora, Juárez, Nuevo León, 67280, México","67280","Nuevo León"
286,4,"CD","Receso",106,10,0,25.65147,-100.10713,"Parada Técnica","UT_GAS_URBANA","TRAIN","Oxxo gas, Calle 20 de Noviembre, 20 de Septiembre, Benito Juárez, Juárez, Nuevo León, 67255, México","67255","Nuevo León"
641,4,"C","Receso",88.39,13,0,25.66455,-100.15575,"Oficinistas","UT_TRAFICO_PEATONAL","TRAIN","Calle Parque Kalos, Parque Industrial Guadalupe, Guadalupe, Nuevo León, 67199, México","67199","Nuevo León"
643,4,"C","Hogar",117.03,13,0,25.65151,-100.18677,"Hogar Reunión","UT_DENSIDAD","TRAIN","Dio Skylife, 7832, Calle Rincón del Fuego, Rincón de Guadalupe, Guadalupe, Nuevo León, 67193, México","67193","Nuevo León"
297,4,"C","Hogar",83,11,0,25.63888,-100.17997,"Hogar Reunión","UT_DENSIDAD","TRAIN","Avenida Coahuila, Paseo del Acueducto, Juárez, Nuevo León, 67199, México","67199","Nuevo León"
645,4,"C","Hogar",107.67,13,0,25.66766,-100.2033,"Hogar Reunión","UT_DENSIDAD","TRAIN","Avenida Evolución, Tacubaya, Guadalupe, Nuevo León, 67188, México","67188","Nuevo León"
649,4,"C","Hogar",96.12,13,0,25.68285,-100.16291,"Hogar Reunión","UT_DENSIDAD","TRAIN","Río Yaqui, Dos Ríos, Guadalupe, Nuevo León, 67116, México","67116","Nuevo León"
294,4,"CD","Hogar",100,10,0,25.65195,-100.08189,"Oficinistas","UT_CARRETERA_GAS","TRAIN","OXXO, Avenida Flor De Loto, Villas de San Jose, Benito Juárez, Juárez, Nuevo León, 67250, México","67250","Nuevo León"
293,4,"CD","Base",103,10,0,25.64159,-100.09377,"Parada Técnica","UT_CARRETERA_GAS","TRAIN","Oxxo Gas, Avenida Francisco Naranjo, Centro, Benito Juárez, Juárez, Nuevo León, 67250, México","67250","Nuevo León"
655,4,"C","Hogar",0,0,0,25.64333,-100.13593,"Hogar Reunión","UT_DENSIDAD","TRAIN","Callejón Río Verde, Juárez, Nuevo León, 67255, México","67255","Nuevo León"
657,4,"C","Base",0,0,0,25.62437,-100.06568,"Parada Técnica","UT_TRAFICO_VEHICULAR","TRAIN","Licenciado Arturo B. De la Garza, Benito Juárez, Juárez, Nuevo León, 67262, México","67262","Nuevo León"
658,4,"C","Base",0,0,0,25.64325,-100.09237,"Parada Técnica","UT_TRAFICO_VEHICULAR","TRAIN","Avenida Francisco Naranjo, Centro, Benito Juárez, Juárez, Nuevo León, 67250, México","67250","Nuevo León"
32,4,"C","Hogar",83.92,9,0,25.66615,-100.13315,"Hogar Reunión","UT_DENSIDAD","TRAIN","Camino Real, Juárez, Nuevo León, 67255, México","67255","Nuevo León"
665,4,"C","Hogar",120.91,13,0,25.66052,-100.18487,"Hogar Reunión","UT_DENSIDAD","TRAIN","Calle Antonio L. Rodríguez, Roble Santa María, Guadalupe, Nuevo León, 67193, México","67193","Nuevo León"
691,4,"C","Hogar",119.33,13,0,25.66351,-100.17908,"Hogar Reunión","UT_DENSIDAD","TRAIN","Fernando Montes de Oca, Niños Heroes, Guadalupe, Nuevo León, 67193, México","67193","Nuevo León"
672,4,"C","Base",0,0,0,25.64168,-100.08912,"Parada Técnica","UT_GAS_URBANA","TRAIN","Elizondo, General Lázaro Garza Ayala, Centro, Benito Juárez, Juárez, Nuevo León, 67250, México","67250","Nuevo León"
673,4,"C","Base",111.41,13,0,25.64503,-100.17097,"Hogar Reunión","UT_TRAFICO_VEHICULAR","TRAIN","Avenida Profesor Eloy Cavazos, SCT, Guadalupe, Nuevo León, 67199, México","67199","Nuevo León"
278,4,"C","Hogar",112.52,12,0,25.65557,-100.08114,"Hogar Reunión","UT_CARRETERA_GAS","TRAIN","Oxxo, Calle Real De San Pablo, Real de San Jose, Benito Juárez, Juárez, Nuevo León, 67250, México","67250","Nuevo León"
37,4,"D","Hogar",109.93,12,0,25.61395,-100.17367,"Hogar Reunión","UT_DENSIDAD","TRAIN","OXXO, Camino a las Espinas, Santa Mónica, Juárez, Nuevo León, 67254, México","67254","Nuevo León"
43,4,"CD","Hogar",0,12,0,25.61009,-100.15445,"Hogar Reunión","UT_DENSIDAD","TRAIN","Oxxo, Mercurio, Los Cometas, San Roque, Juárez, Nuevo León, 67254, México","67254","Nuevo León"
44,4,"CD","Hogar",93.28,12,9,25.61295,-100.15086,"Hogar Reunión","UT_DENSIDAD","TRAIN","Plutón, Los Cometas, Juárez, Nuevo León, 67254, México","67254","Nuevo León"
685,4,"C","Base",0,0,0,25.62251,-100.11564,"Parada Técnica","UT_TRAFICO_VEHICULAR","TRAIN","Calle Aurora, Aurora, Benito Juárez, Juárez, Nuevo León, 67294, México","67294","Nuevo León"
687,4,"C","Hogar",135.12,13,0,25.66008,-100.20738,"Hogar Reunión","UT_DENSIDAD","TRAIN","Camino Vecinal, Gustavo Diaz Ordaz, Guadalupe, Nuevo León, 67194, México","67194","Nuevo León"
688,4,"C","Base",114.99,13,0,25.66385,-100.16292,"Hogar Reunión","UT_TRAFICO_VEHICULAR","TRAIN","Carretera a Reynosa, Guadalupe, Nuevo León, 67199, México","67199","Nuevo León"
689,4,"C","Hogar",124.11,13,0,25.6576,-100.19825,"Hogar Reunión","UT_DENSIDAD","TRAIN","Calle Presa Manuel Ávila Camacho, SCOP, Guadalupe, Nuevo León, 67202, México","67202","Nuevo León"
45,4,"CD","Hogar",95.22,14,7,25.60885,-100.15186,"Hogar Reunión","UT_DENSIDAD","TRAIN","Jardín de Niños Centenario de la Revolución, Asteroides, Los Cometas, San Roque, Juárez, Nuevo León, 67254, México","67254","Nuevo León"
842,4,"C","Hogar",86.38,12,0,25.66859,-100.20566,"Hogar Reunión","UT_DENSIDAD","TRAIN","Roma, San Sebastián, Guadalupe, Nuevo León, 67188, México","67188","Nuevo León"
249,4,"D","Base",110,10,0,25.64624,-100.09664,"Parada Técnica","UT_GAS_URBANA","TRAIN","Avenida Licenciado Arturo B. De la Garza, Joaquín Garza y Garza, Benito Juárez, Juárez, Nuevo León, 67250, México","67250","Nuevo León"
101,4,"C","Hogar",0,13,0,25.6252,-100.11314,"Hogar Reunión","UT_DENSIDAD","TRAIN","Avenida de las Aves, Vistas de San Juan, La Paz, Benito Juárez, Juárez, Nuevo León, 67255, México","67255","Nuevo León"
794,4,"C","Hogar",108.38,14,0,25.62578,-100.10845,"Hogar Reunión","UT_DENSIDAD","TRAIN","Benito Juárez, Juárez, Nuevo León, 67294, México","67294","Nuevo León"
104,4,"C","Hogar",0,13,0,25.66592,-100.09583,"Hogar Reunión","UT_DENSIDAD","TRAIN","OXXO, Avenida Vista de la Montaña, Vistas del Río, Benito Juárez, Juárez, Nuevo León, 67250, México","67250","Nuevo León"
109,4,"B","Hogar",0,13,0,25.6497,-100.07945,"Hogar Reunión","UT_DENSIDAD","TRAIN","Avenida Flor De Loto, Mirador del Parque, Benito Juárez, Juárez, Nuevo León, 67250, México","67250","Nuevo León"
238,4,"C","Hogar",125.16,12,14,25.67126,-100.15907,"Hogar Reunión","UT_DENSIDAD","TRAIN","Oxxo, Diagonal, Santa Cruz, Guadalupe, Nuevo León, 67199, México","67199","Nuevo León"
112,4,"B","Base",0,13,0,25.63771,-100.14633,"Hogar Reunión","UT_TRAFICO_VEHICULAR","TRAIN","Avenida Profesor Eloy Cavazos, Juárez, Nuevo León, 67199, México","67199","Nuevo León"
233,4,"C","Base",102.97,13,10,25.6675,-100.17705,"Oficinistas","UT_GAS_URBANA","TRAIN","Oxxo, Carretera a Reynosa, Guadalupe, Nuevo León, 67193, México","67193","Nuevo León"
812,4,"C","Hogar",106.61,14,0,25.63369,-100.08873,"Hogar Reunión","UT_DENSIDAD","TRAIN","Calle Colinas De La Morena, Arboledas del Parque, Benito Juárez, Juárez, Nuevo León, 67262, México","67262","Nuevo León"
225,4,"D","Base",118.72,10,0,25.65933,-100.1462,"Hogar Reunión","UT_GAS_URBANA","TRAIN","Carretera a Reynosa, Juárez, Nuevo León, 67255, México","67255","Nuevo León"
825,4,"C","Hogar",116.88,13,0,25.621,-100.1357,"Hogar Reunión","UT_DENSIDAD","TRAIN","Boulevard San Antonio, San Francisco, Juárez, Nuevo León, 67276, México","67276","Nuevo León"
829,4,"C","Hogar",115.45,14,0,25.6583,-100.0982,NA,"UT_DENSIDAD","TRAIN","Vista del Arroyo, Vistas del Río, Benito Juárez, Juárez, Nuevo León, 67250, México","67250","Nuevo León"
788,4,"C","Hogar",102.92,14,0,25.62279,-100.14207,"Hogar Reunión","UT_DENSIDAD","TRAIN","Santa Julia Residencial, Juárez, Nuevo León, 67276, México","67276","Nuevo León"
845,4,"C","Hogar",106.03,14,0,25.6792,-100.179,"Hogar Reunión","UT_DENSIDAD","TRAIN","Peninsula, Dos Ríos, Guadalupe, Nuevo León, 67169, México","67169","Nuevo León"
128,4,"BC","Base",95.54,10,6,25.65119,-100.19772,"Hogar Reunión","UT_DENSIDAD","TRAIN","Oxxo, Prolongación Francia 86, Portales de la Silla, Guadalupe, Nuevo León, 67194, México","67194","Nuevo León"
216,4,"C","Hogar",130.4,12,0,25.62346,-100.17471,"Hogar Reunión","UT_DENSIDAD","TRAIN","Oxxo, Santa María, Santa Mónica, Juárez, Nuevo León, 67280, México","67280","Nuevo León"
724,4,"C","Hogar",0,0,0,25.63517,-100.18604,"Hogar Reunión","UT_DENSIDAD","TRAIN","Calle Benito Juárez, Juárez, Nuevo León, 67280, México","67280","Nuevo León"
861,4,"C","Base",0,0,0,25.69839,-100.11424,"Hogar Reunión","UT_DENSIDAD","TRAIN","Prolongación Ruíz Cortines, Lomas de Fatima, Juárez, Nuevo León, 66670, México","66670","Nuevo León"
862,4,"C","Hogar",0,0,0,25.64401,-100.14872,"Hogar Reunión","UT_DENSIDAD","TRAIN","Carretera A San Roque, Juárez, Nuevo León, 67199, México","67199","Nuevo León"
868,4,"C","Hogar",0,0,0,25.64498,-100.10663,"Barrio Competido","UT_DENSIDAD","TRAIN","Camino a La Paz, Benito Juárez, Juárez, Nuevo León, 67255, México","67255","Nuevo León"
198,4,"BC","Base",118,10,0,25.64738,-100.09982,"Hogar Reunión","UT_TRAFICO_VEHICULAR","TRAIN","Licenciado Julio Cisneros, Joaquín Garza y Garza, Benito Juárez, Juárez, Nuevo León, 67250, México","67250","Nuevo León"
163,4,"C","Base",114.24,12,11,25.64966,-100.18897,"Hogar Reunión","UT_GAS_URBANA","TRAIN","Avenida Profesor Eloy Cavazos, Rincón de Guadalupe, Guadalupe, Nuevo León, 67193, México","67193","Nuevo León"
759,4,"C","Hogar",0,0,0,25.61631,-100.13266,"Hogar Reunión","UT_DENSIDAD","TRAIN","Boulevard San Antonio, San Francisco, Juárez, Nuevo León, 67276, México","67276","Nuevo León"
63,4,"D","Hogar",108.53,12,5,25.66645,-100.10365,"Hogar Reunión","UT_DENSIDAD","TRAIN","OXXO, Vista de Huizache, Vistas del Río, Benito Juárez, Juárez, Nuevo León, 67258, México","67258","Nuevo León"
263,4,"C","Hogar",144.12,13,12,25.67809,-100.16256,"Hogar Reunión","UT_DENSIDAD","TRAIN","Oxxo, Río Pánuco, Dos Ríos, Guadalupe, Nuevo León, 67116, México","67116","Nuevo León"
67,4,"C","Receso",97.71,12,6,25.67955,-100.11205,"Parada Técnica","UT_CARRETERA_GAS","TRAIN","Libramiento Norte de Monterrey, Juárez, Nuevo León, 67258, México","67258","Nuevo León"
741,4,"C","Hogar",0,0,0,25.6503,-100.09787,"Hogar Reunión","UT_DENSIDAD","TRAIN","Licenciado Benito Juárez, Joaquín Garza y Garza, Benito Juárez, Juárez, Nuevo León, 67250, México","67250","Nuevo León"
68,4,"D","Hogar",102.87,13,7,25.64911,-100.1431,"Hogar Reunión","UT_GAS_URBANA","TRAIN","OXXO, América Unida, America Unida, Juárez, Nuevo León, 67255, México","67255","Nuevo León"
751,4,"C","Hogar",0,0,0,25.68108,-100.07976,"Hogar Reunión","UT_DENSIDAD","TRAIN","Valle de Santa Isabel, Juárez, Nuevo León, 67258, México","67258","Nuevo León"
69,4,"C","Hogar",101.82,12,7,25.61119,-100.17794,"Hogar Reunión","UT_DENSIDAD","TRAIN","Oxxo, Avenida Arcadia, Arcadia, Juárez, Nuevo León, 67254, México","67254","Nuevo León"
